organCd,사용기관명,지역,주소,홈페이지 주소,전화번호,검색 키워드,대표 강좌 이름,위도,경도
6zeQSI7tMlL5h7SNdQvJoQ==,더가꾸다필라테스사우점평생교육원,경기도 김포시,(10108) 경기도 김포시 돌문로 49 3층 지도보기,https://naver.me/Gd6lS4Q4,010 - 9783 - 0098,"김포필라테스 , 김포운동 , 사우동필라테스",1대1 개인레슨 | 6대1 그룹레슨,37.6193170,126.7174575
X1Ow39IK8M7fjIBs5ETmqQ==,경기도교육청등록평생교육시설브라이트학교,경기도 안산시,(15445) 경기도 안산시 단원구 초지로 124 501호,www.brighteched.com,0507 - 1419 - 7371,"인공지능 , 정보기술개발 , 컴퓨터로봇공학",컴퓨터활용 쇼셜클럽 | 기초수학과 인공지능 | 인공지능 사물인터넷,37.3097566,126.8153671
6gZgNjVhR1kh+OgDtKjMWQ==,그린요리학원,경상북도 문경시,(36968) 경상북도 문경시 신흥로 185 그린요리학원,,010 - 9391 - 3536,"그린요리학원 , 한식조리기능사 , 양식조리기능사",,36.5974604,128.2033678
I3ADUlybWsEkJliYysHf+w==,코어나인필라테스평생교육원,경기도 부천시,"(14544) 경기도 부천시 원미구 상동로 87 가나베스트 타운 7층, 703호",,032 - 324 - 9301,필라테스,,37.5052289,126.7524429
6Jp/5urtlsqMSvMiy0EpOw==,새움원격평생교육원,경기도 파주시,(10904) 경기도 파주시 교하로425번길 17-27 주식회사 새움아트,https://www.swec.kr/,010 - 6855 - 1254,"노인미술 , 아동미술 , 미술교육",색채실미상담사 1급 | 퍼스널컬러,37.7058799,126.7330339
/awKum+GwtzU9T+jMIE2Fw==,동아자동차운전전문학원,전북특별자치도 전주시,(54846) 전북특별자치도 전주시 덕진구 추천로 209 동아자동차운전전문학원,https://063donga.com/,063 - 2111 - 1100,"운전면허 , 자동차운전학원 , 전주자동차운전학원",,35.8547811,127.1122611
FC91OwEpJNQ4QrYWnE/OYg==,본어게인평생교육원,서울특별시 성북구,(02842) 서울특별시 성북구 고려대로27길 18 2층 본어게인,blog.naver.com/bornagain_pilayoga,010 - 2579 - 8868,"안암역필라테스 , 안암역요가 , 고려대학교",,37.5871000,127.0299030
G8k0rDnNQJKeVFOBF29N3Q==,마이에듀원격평생교육원,서울특별시 금천구,(08507) 서울특별시 금천구 가산디지털1로 142 1113-1114호,baeoomup.co.kr,02 - 517 - 2845,,,37.4784047,126.8833586
NgwBomvgspuwMGo2g1bkig==,로아필라테스동탄목동점평생교육원,경기도 화성시,(18484) 경기도 화성시 동탄순환대로18길 16 203호~206호,https://blog.naver.com/willowplan,010 - 9786 - 2046,"필라테스운동 , 요가헬스 , 동탄2필라테스",,37.1831044,127.1243017
9Hy5QL92G8RtJUYnLM87Hw==,경기조은평생교육원,경기도 용인시,(16865) 경기도 용인시 수지구 용구대로2771번길 66 상가동 204호,jja.pulip.kr,031 - 717 - 6778,,토탈공예(입문반) | 천연화장품(연구반) | 가죽공예(심화반) | 가죽공예(입문반) | 천연화장품(사범반) | 천연비누(중급반) | 천연화장품(중급반) | 천연비누(사범반) | 천연비누(사범반) | 천연화장품(중급반),37.3355311,127.1053997
y9Ol+8yXjB1vwC8oKnoPiw==,제주MBC아카데미뷰티학원,제주특별자치도 제주시,(63277) 제주특별자치도 제주시 중앙로 53 10층,,010 - 2777 - 8698,,,33.5135204,126.5249239
oDZgaHShKWLS7ElkjV+Z8Q==,삼육이와스외국어학원,경기도 구리시,(11945) 경기도 구리시 검배로 126 2층,www.sdaebs.com,010 - 9935 - 3605,"외국어 , 기초영어 , 한국어",,37.5939739,127.1517759
z/81XblEpauOWjVr5uwW3g==,인천논현풀잎평생교육원,인천광역시 남동구,(21653) 인천광역시 남동구 논고개로123번길 35 칼리오페 A동 7층 704-2호,http://cafe.naver.com/naraecenter,032 - 441 - 5579,"라탄공예 , 커스텀버블 , 스칸디아모스",홈패션,37.4015154,126.7220901
FgxC4jgzrdfcmE49w9IdNw==,리오베평생교육원,서울특별시 서초구,(06542) 서울특별시 서초구 사평대로55길 29 2층 Riobee,,010 - 5475 - 0478,"꽃 , 플라워 , 플로리스트",,37.5052437,127.0221831
NvN8lF/wI3IVfc6WP1obMQ==,크라우드웍스원격평생교육원,서울특별시 강남구,(06151) 서울특별시 강남구 테헤란로 309 5층,https://academy.crowdworks.kr/,02 - 6958 - 7010,"크라우드웍스아카데미 , 데이터라벨링부업알바 , 온라인AI취업자격증",돈의 미래 : 스테이블코인 완전 정복 | 경제적 자유의 시작 데이터 라벨링 스킬 강화 패키지 | 데이터 분석에서 콘텐츠 제작까지 똑똑한 AI 마케터 과정 | 망한 블로그도 살리는 블로그 수익화 공략법 | AI 시대 데이터 프로젝트 매니저로 사는 법 : AIDPM,37.5035623,127.0444577
tlTo3ysmccBPxJAYZKC1ig==,마인드맵평생교육원,강원특별자치도 동해시,(25792) 강원특별자치도 동해시 갯목길 6 마인드맵평생교육원,,010 - 5375 - 4462,"지역리더 , 행복",,37.4843835,129.1266887
GmDXo4kbG9pvMJcH3XhAig==,광명건축기능사학원가람,경기도 광명시,(14216) 경기도 광명시 광삼로 59 3층 2호,https://blog.naver.com/garam_2022,010 - 3364 - 6872,"건축도장 , 방수 , 광명건축기능사학원",,37.4780790,126.8630104
MjtAv5jlHnY7j4yGHarb9Q==,늘푸른나무복지관,서울특별시 강서구,(07524) 서울특별시 강서구 허준로5길 37 늘푸른나무복지관,http://www.egreen.or.kr/,02 - 3661 - 3401,"발달장애 , 지적장애 , 자폐성장애",숲체험 | 줌바댄스 | 스마트폰 영상편집 | 지역주민 평생교육 (요리) | 지역주민 평생교육 (공예) | 컵타 | 오조봇 | 수박도 | 아이클레이 | 아이패드 드로잉,37.5685401,126.8510733
uxzYOeIIGGZ6z0VJCdeLjA==,메이저필라테스평생교육원,서울특별시 관악구,(08759) 서울특별시 관악구 남부순환로 1597 4층,https://blog.naver.com/majorpilates,010 - 6252 - 6611,"신림필라테스 , 신림역필라테스 , 자이로토닉",,37.4842940,126.9278958
MFpyYK19HLIxNJ/nIZxNWg==,한솔요리커피바리스타제과제빵학원(수원점),경기도 수원시,"(16455) 경기도 수원시 팔달구 덕영대로 899 2층 212, 213호 4층 412~415호 (매산로1가, 세진브론즈빌)",https://www.sw-hscook.com,031 - 307 - 2500,"요리 , 베이킹 , 커피",원데이_베이킹클래스 | 원데이_베이킹클래스 | 원데이_쿠킹클래스 | 한식요리초급과정,37.2681505,127.0003154
OLWiDh5f0DXhGM1YQcTkqw==,도로시뷰티아카데미학원,경상북도 김천시,(39583) 경상북도 김천시 자산로 200 2층,,054 - 436 - 4488,"미용자격증교육 , 헤어자격증 , 네일자격증",피부 미용 | 미용 헤어 | 네일아트 | 메이크업 정규 | 이용사 | 메이크업 정규 | 피부 자격증 | 미용 헤어 | 네일아트,36.1280961,128.1185561
KpjiALnVCW9b4qLGi5wMUQ==,인생필라평생교육원,경기도 수원시,(16282) 경기도 수원시 장안구 금당로 42 5층 503호,,010 - 2733 - 2475,"필라테스 , 운동교육",,37.3028786,127.0157728
aBRntuiatXUxQKMPoG0BrA==,광주공예학원,광주광역시 서구,"(62029) 광주광역시 서구 염화로31번길 19 상가동 2층,201호",https://blog.naver.com/hans-n-cermic,010 - 8030 - 3051,"광주공예학원 , 도자기공예 , 토탈아트",나만의그릇만들기(중급1) | 핸드빌딩도자기 | 상회장식도자기 | 나만의그릇만들기(초급1),35.1367151,126.8705897
vGUxSrt93sxay9T+TaLaTA==,에스비에스(SBS)아카데미컴퓨터아트학원홍대,서울특별시 마포구,(04051) 서울특별시 마포구 양화로 176 6층 SBS아카데미컴퓨터아트학원 홍대,https://sinchon.sbsart.com/,02 - 312 - 9635,"SBS아카데미 , SBS아카데미홍대 , SBS아카데미컴퓨터",,37.5572510,126.9249991
Y7RhcmFPYT5RZiDtLHT4KQ==,스타셰프실용전문학교,경기도 동두천시,(11346) 경기도 동두천시 지행로 63 연빌딩 7층 스타셰프실용전문학교,http://www.starchef.kr,031 - 863 - 0600,"동두천요리학원 , 동두천제과제빵 , 동두천바리스타",커피바리스타2급 취득과정 | 한식조리기능사 취득과정 | 양식조리기능사 실기과정 | 중식조리기능사 실기과정 | 일식조리기능사 실기과정 | 복어조리기능사 실기과정,37.8926770,127.0542513
dXU5xwsgQtCzisBlqbVrhQ==,목5동주민자치회,서울특별시 양천구,(07984) 서울특별시 양천구 목동서로 41 4층 자치회관 지도보기,,02 - 2620 - 4039,,,37.5372034,126.8816837
LUDtcDeVVFyFch5ZXD/xzg==,대전에스비에스아카데미미용학원,대전광역시 서구,(35300) 대전광역시 서구 계룡로 640 태산빌딩 4층,https://daejeon.sbsbeautystyle.com/campus.asp,042 - 532 - 4900,"피부국가자격증 , 헤어국가자격증 , 메이크업국가자격증",,36.3382710,127.3927620
St5WoxWkGsZag3WITPZDXg==,세종직업능력개발원,서울특별시 금천구,(08591) 서울특별시 금천구 가산디지털1로 2 210호 지도보기,http://www.sjau.co.kr/,02 - 6049 - 4180,"경매물건 , 경매 , 부동산빅데이터터",,37.4668807,126.8883825
uFpAi3AyWi2hQyWXsNs8eA==,녹영꽃예술학원,경기도 부천시,(14548) 경기도 부천시 원미구 길주로 288 다운타운901호 신중동역3번출구,https://blog.naver.com/lokyoungflorist,070 - 4038 - 6976,"플라워 , 꽃꽂이 , 화훼원예",,37.5027295,126.7742422
50VZLqhSLIFei52BuMihHw==,옥동컴퓨터학원,경상북도 안동시,(36660) 경상북도 안동시 경북대로 391 건물2층,,054 - 841 - 3004,"컴퓨터활용능력 , ITQ , 자격증",ITQ자격증 | ITQ | 컴퓨터활용능력2급 | 포토샵(GTQ2급) | ITQ,36.5642509,128.7009765
8l2lFUfUooFNEdBYiudCRg==,수성구평생학습관,대구광역시 수성구,"(42027) 대구광역시 수성구 달구벌대로 2451 (범어동, 범어도서관) 1층 수성구 평생학습관 지도보기",https://lll.suseong.kr/,053 - 666 - 2546,"수성구 평생학습관 , 수성거꾸로 인생학교 , 러닝톡",,35.8593746,128.6306765
/q+TPcbujHKb4AZJx8rQRw==,클래스클라우드TCK평생교육원,서울특별시 중구,(04534) 서울특별시 중구 남대문로 78 타임워크명동빌딩 3층,https://www.classcloud.kr,010 - 5079 - 6470,"강사양성 , CS교육 , 생성형 AI",키비주얼의 힘: 한 장으로 압도하는 PPT with AI | 고수의 질문법: 업무 퀄리티를 바꾸는 AI 프롬프트 | 슬기로운 노션 생활: 기초부터 포트폴리오까지 완성 | 기업교육 전문강사 양성과정 | 팀을 움직이는 CS관리자 리더십 : 소수 정예 밀착 코칭 바이블 | CS 서비스 가치찾기,37.5642246,126.9829594
LTxaGZlpdzi6tnZHJWBbcg==,성지문화원,부산광역시 부산진구,(47181) 부산광역시 부산진구 동평로94번길 28 1층,,051 - 898 - 5000,"성인문해교육 , 초등, 중학학력인정 , 기초한글영어한자",다문화한국어교실 | 치매예방미술(문해) | 영어회화(문해) | 기초영어(문해)) | 자서전반(문해) | 치매예방미술(문해) | 다문화한국어교실 | 영어회화(문해) | 기초영어(문해)),35.1643123,129.0401759
bFCZjWQ+ZhEoosHXkyP+Lg==,피아체레직장인음악학원,경상남도 창원시,(51729) 경상남도 창원시 마산합포구 창동거리길 47 2층,https://cafe.naver.com/piaceremusic,606 - 9455,"통기타 , 피아노 , 보컬",우물렐레 초급반 | 통기타 초급반 | 우쿨렐레 초급반 | 피아노 초급반 | 통기타 초급반 | 보컬 초급반,35.2055363,128.5751867
RCgZAL6z0+vWTjnK9f12oA==,올워크원격평생교육시설,서울특별시 서초구,(06640) 서울특별시 서초구 서초중앙로 52 302,www.allworkedu.co.kr,02 - 585 - 0108,"재취업 , 직무전환 , 직무교육",직업상담사 필기 5과목 노동법규 | 직업상담사 필기 4과목 노동시장 | 직업상담사 필기 3과목 직업정보 | 직업상담사 필기 2과목 직업상담 | 직업상담사 필기 1과목 직업심리 | 유튜브 마케팅 실무 | 생성형 AI활용 글쓰기(PC) | 홈페이지 만들기 | 블로그 활용법 | 인스타그램 활용법,37.4867428,127.0157640
Z+3D52M25uGno6PHbASW/A==,전주동양컴퓨터학원,전북특별자치도 전주시,(55060) 전북특별자치도 전주시 완산구 서원로 2 기정빌딩 4층 402호,blog.naver.com/sunduk8259,063 - 252 - 8814,"바우처컴퓨터학원 , 전주컴퓨터학원 , 전주바우처학원",컴퓨터활용능력2급자격증 | ITQ파워포인트 자격증 및 파워포인트 실무 | 컴퓨터활용능력2급실기 | 컴퓨터활용능력2급실기,35.8133863,127.0946911
kOqoFJEs7Th2ovuCH0x3Zw==,강남발달장애인평생교육센터,서울특별시 강남구,(06220) 서울특별시 강남구 논현로86길 21 2층 지도보기,https://www.gangnam.go.kr/office/memewell/main.do,070 - 4354 - 4701,,강남발달장애인평생교육센터 평생교육프로그램,37.5003482,127.0391648
rYqyY+aXpKY8lHfWlI4aRA==,제이힐링조영신댄스학원,제주특별자치도 제주시,(63227) 제주특별자치도 제주시 신설로7길 57 2층 201호,,010 - 7749 - 3474,"댄스학원 , 줌바",줌바댄스3개월과정,33.4956795,126.5472216
2yrv6q4nbOo18bDcROP0WA==,하이미디어컴퓨터학원노원점,서울특별시 노원구,(01693) 서울특별시 노원구 상계로5길 32 6층,imdacademy.kr,02 - 952 - 9944,"컴퓨터활용능력2급 , ITQ , 포토샵","컴퓨터활용능력2급 실기 | 자체시험센터에서 기초부터 배우는 ITQ(한글,파워포인트,엑셀)자격증과정 | 자체시험센터에서 기초부터 배우는 ITQ(한글,파워포인트,엑셀)자격증과정",37.6571039,127.0628442
gzWvc/+NLzmjtnNwqGOhsQ==,풀잎문화센터청라지부평생교육원,인천광역시 서구,"(22762) 인천광역시 서구 청라커낼로 264 5층, 509호 (청라동, 청라중앙프라자)",cr.pulip.kr,032 - 568 - 5323,,,37.5320782,126.6449716
GdAz7fkmLwL/3so/qrIXsw==,(주)삼성자동차운전전문학원,충청북도 청주시,(28356) 충청북도 청주시 흥덕구 평동로 29 삼성자동차운전전문학원,www.samsungdrive.net,043 - 277 - 3388,,,36.6540485,127.4245771
vavYRaZnlQVMpD7nJLTvkg==,액션에어에어컨기술창업학원,세종특별자치시 세종특별자치시,(30001) 세종특별자치시 소정면 소정구길 228 액션에어에어컨기술창업학원,actionair.co.kr,010 - 2606 - 7339,,,36.7243824,127.1584449
P5VoPGtNdoJFZ3UHHA6ulw==,알지오평생교육원,경기도 의정부시,(11697) 경기도 의정부시 시민로122번길 41-46 201호,https://www.alzio.co.kr/,031 - 873 - 6765,"알지오 , 온라인강의 , 인터넷강의",,37.7365088,127.0494969
7pPMlaTp5RilnvDtsaU4FQ==,광주가톨릭평생교육원,광주광역시 서구,(61995) 광주광역시 서구 상무대로 980 광주가톨릭평생교육원,www.gclei.kr,062 - 380 - 2200,"광주가톨릭 , 평생 , 교육",작가와 함께 글쓰기교실 | 오카리나(초급/야간) | 색소폰(초급) | 사진교실(야외출사반) | 바이올린(그룹레슨) | 대금 | 감성일러스트(주말) | 스마트폰(활용) | 꿈에 그리던 정원 현실이 되다,35.1503490,126.8685000
+npP/m5uTJ9RGtOSQ2TfUA==,남영자동차학원,부산광역시 사하구,(49397) 부산광역시 사하구 을숙도대로 709 남영자동차학원,,051 - 207 - 7965,,,35.0856332,128.9824334
mpJoSyB3aBd4jEFA3kaZtg==,바디다움평생교육원,서울특별시 강남구,"(06137) 서울특별시 강남구 봉은사로38길 12 3층, 전체",https://beautifulbodyacademy.kr/,010 - 9524 - 9090,"필라테스 , 개인필라테스 , 그룹필라테스",,37.5074354,127.0375693
IpLZla0to20Nl8rZMmabWA==,필라테스에반하다왕길역점평생교육원,인천광역시 서구,"(22657) 인천광역시 서구 단봉로 99 303,304호",pcmap.place.naver.com/restaurant/1876146959/home,010 - 9034 - 2053,"필라테스 , 기구필라테스 , 그룹필라테스",,37.5971952,126.6404598
rvXs5qk5I52iaWoklql6Bw==,성북문화원,서울특별시 성북구,(02834) 서울특별시 성북구 성북로4길 13-8 성북문화원 지도보기,https://www.isbcc.or.kr,02 - 765 - 1611,"강좌 , 프로그램 , 수업",,37.5897162,127.0057673
NRyjse/n/gdNQ9/YjkehOw==,한국디지털융합컴퓨터학원,경기도 양주시,(11450) 경기도 양주시 덕정길 7 2층,https://cafe.naver.com/allcom88,010 - 8939 - 4357,"컴퓨터활용능력 , 엑셀.워드 , 자격증",,37.8443032,127.0626312
ci/026ZsrYWdOfckYQ2NPQ==,금산자동차운전전문학원,충청남도 금산군,(32744) 충청남도 금산군 금산읍 장자길 31 금산자동차운전전문학원,https://www.gumsancar.co.kr/,041 - 754 - 4700,"운전면허 , 1종보통 , 2종보통",2종자동 도로연수,36.0973163,127.4587259
sSEbpRb0jzVFKcbW316lDw==,광주여성인력개발센터,광주광역시 동구,(61470) 광주광역시 동구 제봉로 221-11 4층,https://www.womencenter.or.kr,062 - 511 - 0001,"직업교육 , 자격증 취득 , 취업준비",,35.1544634,126.9136167
g0y+hGsLiVKaF5IOfZCDag==,중앙미용학원,강원특별자치도 춘천시,"(24329) 강원특별자치도 춘천시 금강로 111 2,3층",,033 - 254 - 3668,"미용학원 , 춘천 , 중앙미용학원",이용사 | 이용사 | 메이크업 | 네일 미용 | 헤어미용(일반) 자격증,37.8761183,127.7320970
JlVOVXT+0i91RObm0oqeOg==,맘보바리스타제과제빵학원청주지점,충청북도 청주시,(28575) 충청북도 청주시 서원구 1순환로648번길 2 맘보바리스타제과제빵학원 지도보기,https://mb.mambo-academy.com/,043 - 260 - 3206,"한식양식중식일식 , 바리스타 , 제과제빵케이크",,36.6357233,127.4594738
R8/l5iSZ3795Vs+zBayQOQ==,새부산컴퓨터전산회계학원,부산광역시 동래구,(47877) 부산광역시 동래구 명륜로 74 2층,www.drsaepusan.net,051 - 503 - 0022,"사무자동화 , 컴활자격증 , 전산회계자격증","컴퓨터기초 실무활용반 | 컴활자격증(1급2급) | ITQ자격증(한글파포엑셀) | 사무자동화(한글파포엑셀) | 컴퓨터자격증(워드,컴활,ITQ) | 전산회계1급자격증 | 전산회계자격증 | 네이버블로그마케팅제작 | 컴퓨터OA활용종합실무반(실업반) | ITQ마스타자격증",35.2006044,129.0844775
VOb7HaBgvaClg9qm00zhzA==,바요필라테스평생교육원,서울특별시 동작구,(07070) 서울특별시 동작구 신대방길 5 2층,https://blog.naver.com/qkrdpwls123,02 - 2135 - 5340,"자세교정,재활필라스 , 산전산후,키즈,시어 , 다이어트",기구필라테스,37.4877506,126.9122622
mWj0ip31FEZvQQ7cnV8tdQ==,한마음평생교육원,부산광역시 중구,(48967) 부산광역시 중구 대청로 63-1 4층,,051 - 246 - 2781,"감정, 마음, 심리 , 공예, 타로,미술 , 사주","종합 예술 힐링테라피 | 종합 예술 힐링테라피 | 생활 공예 (레진, 가죽) | 타로마스터(1:1 개인) | 스트레스 관리_마음(1:1 개인) | 타로마스터(5:1소그룹) | 스트레스 관리_감정(1:1 개인)",35.1032198,129.0270381
Kn/I6qj/rt4Atcz5XysWsw==,미디런아카데미학원,서울특별시 마포구,(03995) 서울특별시 마포구 동교로 190 3층일부 5층,www.midilearn.com,02 - 337 - 2955,"미디작곡 로직프로 , 영상편집 파이널컷프 , 음향 오디오 프로툴",,37.5570773,126.9225266
QHWQRAiomHublelCTOtbRQ==,시사일본어학원,부산광역시 금정구,"(46291) 부산광역시 금정구 금정로68번길 46 3,4층 시사일본어학원",www.sisajju.com,051 - 512 - 1582,"부산일본어학원 , 부산대일본어학원 , 부산일어학원",시험반 | 베이직 | 시험반 | 중급단기반 | 회화단기반 | 시험단기반 | 회화반 | 주말시험반 | 주말베이직 | 주말회화반,35.2302535,129.0888992
7Hak2PbLfnhhdmbUD27dAQ==,금정음식나라조리학원,부산광역시 금정구,(46216) 부산광역시 금정구 중앙대로 2018-1 6층 음식나라조리학원,http://goldcook2003.kr/,051 - 515 - 0069,,밑반찬 창업과정 | 일식조리기능사 자격증취득과정 | 중식조리기능사 자격증취득과정 | 양식조리기능사 자격증취득과정 | 한식조리기능사 자격증취득과정 | 양식조리기능사 자격증취득과정,35.2644374,129.0926837
eDlgzmYdDyH2kYQYDG2thA==,부천조리직업전문학교,경기도 부천시,(14637) 경기도 부천시 원미구 부일로 460 3층,http://bucheoncook.com/index.php,032 - 611 - 1100,,,37.4858739,126.7810189
hJGXnl3qzfOLP1lfncdJJg==,진주교육대학교부설평생교육원,경상남도 진주시,(52673) 경상남도 진주시 진양호로369번길 3 교사교육센터 202호,www.cue.ac.kr/cuece,055 - 740 - 1413,"진주교대평생교육원 , 교대골프 , 교대평생",궁중무용 | 교방무용 | 라인 댄스 | 내 몸에 필요한 움직임을 배우는 요가와 필라테스 | 배구 | 쉽게 배우는 여행스케치 | 기초부터 배우는 연필스케치와 초상화 | 서예 | 민요와 판소리 | 행복명상과 심리치유,35.1863617,128.0670038
2rU6LVIU0QJfF+AoFDAj0Q==,빈센트커피제과제빵학원,경기도 수원시,"(16455) 경기도 수원시 팔달구 갓매산로55번길 18 헌욱빌딩 3, 4층 지도보기",,031 - 247 - 9373,"바리스타 , 제과 , 제빵",바리스타2급(실기)+SCA초급(실기) | 커피브루잉 [커피지도사2급+SCA 브루잉초급(실기)] | 커피브루잉 [커피지도사2급+SCA 브루잉초급(실기)],37.2690182,127.0036648
xk0N6zYiTs6oIAVLQAMuHg==,밀양간호학원,경상남도 밀양시,(50440) 경상남도 밀양시 삼문중앙로 38 중앙빌딩 3층,http://www.myeduc.co.kr/,055 - 356 - 8777,"밀양평생교육 , 간호조무사 , 요양보호사",요양보호사 국가자격증 소지자반 | 요양보호사 자격취즉과정(야간) | 요양보호사 자격취즉과정(주간) | 간호조무사 자격취득과정,35.4849582,128.7560077
rz8QjI4jQ+t9zp4qlbEpnA==,양탕국커피문화교육학원,경상남도 하동군,(52320) 경상남도 하동군 적량면 공드림재길 155 20번 건물 지도보기,,055 - 883 - 9420,"바리스타 , 커피 , 양탕국",홈카페바리스타 | 1급 핸드브루잉바리스타 | 1급 머신바리스타 | 2급 양탕국브루스터 | 2급 핸드브루잉바리스타 | 2급 머신바리스타 | 양탕국 커피문화해설사 | 2급 로스터 | 1급 로스터 | 양탕국 핸드브루잉 바리스타,35.0986072,127.7790356
Hoi1OAKAJjR8YfhdKwuIqQ==,제이디바리스타학원,광주광역시 북구,(61218) 광주광역시 북구 우치로 15 2층,,062 - 511 - 0588,"바리스타 , 디저트 , 창업",,35.1690269,126.9104619
a3BjvvSE2/K1nk7X92qPqw==,미래평생교육원,부산광역시 사상구,(46955) 부산광역시 사상구 사상로 263 2층 미래평생교육원,www.edu4life.kr,070 - 8064 - 8408,"캘리그라피 , 일러스트 , 오일파스텔아트",프랑스자수 | 세라믹핸드페인팅 | 오일파스텔아트 | 펜드로잉 캘리그라피 | 세라믹(도자)핸드페인팅 | 프랑스자수 | 오일파스텔아트 | 감성수채화 | 펜드로잉 캘리그라피,35.1683978,128.9819775
BMKTTYrWDDNrn3fj89MY2A==,원대간호학원,대구광역시 서구,(41730) 대구광역시 서구 달서로 282 3층 지도보기,http://wdnurse.co.kr/,053 - 354 - 4577,"간호조무사 , 간호조무사학원 , 대구간호조무사",,35.8865069,128.5753391
oIQj4VzOqmgpQSuKQXFffA==,보스보컬실용음악학원,부산광역시 강서구,"(46773) 부산광역시 강서구 명지국제8로 259 501호,502호(명지동,삼성빌딩)",www.vossmusic.co.kr,010 - 5654 - 5734,"보컬 , 기타 , 드럼",기타 | 드럼 | 피아노 | 보컬,35.0982489,128.9212035
JGU7KSTA7HXq4eI2h7jpIQ==,장고옥헤어아카데미학원,인천광역시 서구,(22883) 인천광역시 서구 염곡로464번길 30 벨라미1차상가 1015호,https://map.naver.com/p/entry/place/1236225901?placePath=%252Fhome%253Fentry%253Dplt&searchType=plac,032 - 432 - 9943,"열펌 , 아이롱펌 , 아이롱",열펌 | 토탈열펌&아이롱 | 토탈열펌,37.5257931,126.6723222
12Q8YQ2Z/vEI5NtTHBkYIQ==,아시아자동차운전전문학원,전북특별자치도 김제시,(54370) 전북특별자치도 김제시 복죽로 538 아시아자동차운전전문학원,https://asiadriving.co.kr/,063 - 548 - 0001,,,35.7998391,126.8630016
yPdPsGPybnYOKuAYd45bAw==,이화여자대학교글로벌미래평생교육원,서울특별시 서대문구,(03760) 서울특별시 서대문구 이화여대길 52 이화삼성교육문화관 507,https://sce.ewha.ac.kr/,02 - 3277 - 3111,,,37.5617395,126.9472447
0m5Huga70QQt+jB5ysTh0A==,위드피아노상암DMC학원,서울특별시 마포구,(03930) 서울특별시 마포구 월드컵북로 328 302호,https://with-piano.com/,010 - 3675 - 9374,"피아노 , 클래식 , 재즈",,37.5757594,126.8957437
sRBsSNSkaxeAhGc2KitxzQ==,대구여성인력개발센터YWCA,대구광역시 남구,(42424) 대구광역시 남구 중앙대로 222 대명동,http://www.how-ywca.or.kr,053 - 472 - 2280,"대구여성 , 대구평생바우처 , 대구강좌",손뜨개 | 손뜨개 오전반 | 핸드메이드 손뜨개 | ITQ | ITQ | 캘리그라피-중/고급 | 캘리그라피-초급 | 요가,35.8531027,128.5909262
BY1nh4YZ5Hl46TsKs5dD2Q==,컬컴전주점,전북특별자치도 전주시,(54969) 전북특별자치도 전주시 완산구 홍산중앙로 40 6층 601호 컬컴전주점,,010 - 5834 - 0556,"영어회화 , 영어 , 컬컴",,35.8171145,127.1093248
Y6Ppb6Q9zQ0b3Gl+hf3p6Q==,박물관휴르,대구광역시 수성구,(42021) 대구광역시 수성구 국채보상로186길 47 박물관 휴르,museumhyur.modoo.at/,053 - 759 - 3902,"박물관 , 성인 , 평생교육기관","진로 체험(공예가) | 부엉이 기초 도예 | 부엉이 세라믹 페인팅 | 아크릴 자화상 | 부엉이 기초 미술, 아크릴화 | 부엉이 세라믹 페인팅-사각접시 디자인 | 부엉이 세라믹 페인팅-원형접시 디자인",35.8660516,128.6332135
1kdDUB8kiLua1IQ5Qfoffw==,공주간호학원,충청남도 공주시,(32586) 충청남도 공주시 공주대학로 17-20 2~4층,,041 - 8520 - 0852,"요양보호사 , 병원동행 , 생활지원사",,36.4679200,127.1356571
z6FtQIm66xUECYBVKnifrw==,원에어클린에어컨세탁기분해청소전문교육학원,경상남도 김해시,(50875) 경상남도 김해시 진례면 테크노밸리로 25-6 1층,http://1airclean.kr/theme/TYPE02/subpage/01.php,010 - 5585 - 7360,"직업전문학원 , 에어컨 세탁기 , 분해청소",에어컨 분해청소 실무교육과정 | 세탁기 분해청소 실무교육과정,35.2670394,128.7659600
5fD5abWe2lOtnvMsmUA+Ww==,제주장애인평생교육원,제주특별자치도 제주시,(63098) 제주특별자치도 제주시 도령로 15 10층,,064 - 743 - 2467,,,33.4870385,126.4808046
NcOPxE1KaOP/AAmFl0W+Pw==,글로벌예술종합평생교육원,전라남도 담양군,(57340) 전라남도 담양군 담양읍 객사2길 3 글로벌예술종합평생교육원,,010 - 8671 - 8472,,피아노,35.3225831,126.9820903
+NvfBcJ5hUY+GMCHbDW1BQ==,굿아이컴퓨터학원,광주광역시 북구,(61052) 광주광역시 북구 설죽로 338 4층 지도보기,https://blog.naver.com/rntdkdl3477,010 - 2675 - 3744,"컴퓨터학원 , 컴퓨터기초 및 자격증 , 유튜브 및 영상편집","컴퓨터활용능력/컴퓨터활용능력2급/컴퓨터활용능력1급 | 컴퓨터활용능력, 컴퓨터기초, 컴퓨터자격증 | 컴퓨터활용능력2급",35.1896327,126.8993895
ZSiJepvBX5Jy2gzz5FDNAA==,중구여성플라자평생교육시설,서울특별시 중구,(04586) 서울특별시 중구 다산로32길 5 3층,www.jgwoman.or.kr,02 - 2236 - 9985,"중구평생교육기관 , 중구여성센터",AI 활용 유튜브 크리에이터 | 캐주얼하게 즐기는 연말요리,37.5612923,127.0148351
gfWRGguf/6fgi6xLlqGirA==,광주광역시교육청학생독립운동기념회관,광주광역시 서구,(62024) 광주광역시 서구 학생독립로 30 광주광역시교육청학생독립운동기념회관 지도보기,https://lib.gen.go.kr/student/,062 - 221 - 5500,,,35.1406054,126.8650141
RhOngIXH4CwYxgJKxnjmUA==,피렌체가죽공예학원,인천광역시 남동구,(21571) 인천광역시 남동구 인주대로 624 4층 지도보기,https://blog.naver.com/by_sephiroth,032 - 421 - 5894,"가죽 , 공예 , 창업",가죽공예 가방만들기 | 가죽공예 기초과정 | 가죽공예 소품제작 | 가죽공예 소품&가방제작 Type A | 가죽공예 소품&가방제작 Type A | 가죽공예 소품&가방제작 Type C | 가죽공예 소품&가방제작 Type C | 가죽공예 소품&가방제작 Type A | 가죽공예 소품&가방제작 Type B | 가죽공예 소품제작,37.4495871,126.7060024
LgHLGnnhl/2Ginglf6fzSA==,바디멀티기구필라테스(정릉점)평생교육원,서울특별시 성북구,(02718) 서울특별시 성북구 보국문로 10 7층 바디멀티필라테스 정릉점,https://blog.naver.com/bodymulti,010 - 4310 - 3206,"정릉역필라테스 , 성북구필라테스 , 길음역필라테스",,37.6055229,127.0116460
OtnMrLyATdyw2S31xCo/xg==,남부자동차운전전문학원,경상북도 경산시,(38616) 경상북도 경산시 중방로 124 남부자동차운전전문학원,,053 - 811 - 1101,,,35.8325717,128.7469490
mUgF2/QewnvQS+o2wjHHmg==,스카이(SKY)원격평생교육원,서울특별시 강남구,(06131) 서울특별시 강남구 강남대로94길 71-9 1층,https://skyabc.co.kr/,00 - 1599 - 2347,"학점은행 , 온라인교육 , 사회복지",사회복지현장실습 | 사회학개론,37.5012079,127.0327853
cSdDNz0Ds3YNjP9ZyBnJ3A==,인천HRD평생교육원,인천광역시 남동구,(21557) 인천광역시 남동구 예술로 230 206~7호,,032 - 873 - 6115,,,37.4545557,126.7021254
umo+y8v9Ay+LLR7J3ZbjGg==,서울과학기술대학교부설평생교육원,서울특별시 노원구,(01811) 서울특별시 노원구 공릉로 232 상상관 302호,https://www.seoultech.ac.kr/,02 - 970 - 9183,"평생교육 , 디지털교육 , 교양강좌",,37.6316217,127.0783723
Qbm/i80ez+10tVKEdwIMPA==,한국관광통역안내사협회평생교육원,서울특별시 성동구,(04701) 서울특별시 성동구 왕십리로 386 8층,https://www.kotga.or.kr/,02 - 2298 - 0494,"관광통역안내사 , 자격증 , 가이드",,37.5651032,127.0276365
C8esRsstjxyEz8L74C0v4g==,포항직업전문학교,경상북도 포항시,(37878) 경상북도 포항시 남구 냉천로 58 포항직업전문학교,http://www.pohangi.co.kr/,054 - 274 - 0082,"지게차 , 굴착기 , 천장크레인",,35.9876666,129.3998189
lnyMBw/Z0tdPFLPKJmKlJg==,논산제과제빵학원,충청남도 논산시,(32974) 충청남도 논산시 중앙로 426 3층 논산제과제빵학원,,041 - 734 - 4751,"제과제빵기능사 , 케이크데코레이션 , 홈베이킹",제과기능사과정 | 홈베이킹 | 제과제빵기능사과정 | 홈베이킹 | 제빵기능사과정 | 제과기능사과정,36.2017648,127.0875864
jlJprRXJ1M/uzsRUg1ebaQ==,일공일랩원격평생교육원,서울특별시 송파구,(05790) 서울특별시 송파구 위례서로 252 유원플러스송파 1611호,www.101phone.co.kr,010 - 6688 - 4515,"전화외국어 , 전화영어 , 전화일본어",,37.4870925,127.1425023
8Dz3ZTFKeS6UVGzbTtpE/Q==,사하사랑채노인복지관,부산광역시 사하구,(49339) 부산광역시 사하구 사리로 35 사하사랑채노인복지관,https://sahasilver.org/main.php,051 - 293 - 9544,,라인댄스 중급 | 줌바에어로빅1 | 줌바에어로빅2 | 스포츠댄스 | 요가1 | 요가2 | 요가3 | 실용미술교실 | 컴퓨터 활용 | 동영상편집,35.1030403,128.9987623
a43EOpatgdG6OQxZlFFfSw==,리움필라테스동탄장지점,경기도 화성시,(18506) 경기도 화성시 동탄대로4길 47 AJ프라자 4층 411~414호,,031 - 372 - 1730,"필라테스 , 요가 , 플라잉요가",,37.1617914,127.1112837
1quJBLZ7EXNMx6m6bAenTQ==,원즈아카데미요리전문학원,울산광역시 중구,(44420) 울산광역시 중구 백양로 88-1 3층,www.wons2022.com,052 - 245 - 1498,"양식조리기능사 , 이탈리아요리지도사 , 울산요리학원","종합(모던한식, 이탈리아전통요리단기과정)",35.5733552,129.3159054
cJJNw9A/ziwOcZWBaoSnug==,롯데키즈마트문화센터부산점,부산광역시 부산진구,(47187) 부산광역시 부산진구 신천대로 241 2층 문화센터,https://culture.lottemart.com/,051 - 608 - 2590,"롯데마트 , 부산점 , 부암동",오전 요가 | (특강)발레 | 필라테스 | 운명을 읽다 사주 명리학 | (NEW) 복을 부르는 관상학 | [신규접수가능]1:1 개인레슨 피아노 교실 (수) (성인) | 유화 | 수채 | 우쿨렐레 | 요가,35.1633085,129.0493226
H+fQPpOLEagaHPCmfLWhIQ==,고운빛깔미용학원,경상남도 창원시,(51495) 경상남도 창원시 성산구 마디미로9번길 1 703호 고운빛깔미용학원 지도보기,https://blog.naver.com/gowoon_academy,055 - 289 - 0403,"피부미용학 , 산모테라피 , 체형관리",,35.2233395,128.6855940
lDF+MeZVPvsmjxzMcOpP/Q==,성남베이킹제과제빵학원,경기도 성남시,(13316) 경기도 성남시 수정구 수정로88번길 5 이층 성남 베이킹 제과 제빵 학원,,010 - 2270 - 8978,"제빵기능사 , 제과기능사 , 케이크",,37.4399691,127.1305785
2zC+8w33p1P3ezW588wLZw==,더본외식산업개발원문경센터,경상북도 문경시,"(36920) 경상북도 문경시 문경읍 온천강변1길 23 2층, 3층",https://www.instagram.com/theborn_mg/,054 - 572 - 5290,"조리 , 베이커리 , 바리스타",홈카페 브루잉 및 퍼스널 커피 찾기 - 원데이클래스 | 구겔호프 케이크 - 원데이클래스 | 제철 해산물 빠에야,36.7275652,128.1101659
NElmixGwbCHLUn6OARGmJQ==,EBS미디어원격평생교육원,서울특별시 종로구,(03146) 서울특별시 종로구 인사동길 62-5 3층 지도보기,www.everywill.net,1600 - 4450,"사회복지사 , 미용 , 심리학",,37.5754819,126.9838699
T/ZJa/fODr/qEbOsGRNWUw==,영동미용학원,경상북도 영천시,(38854) 경상북도 영천시 호국로 10 41-4 번지 영동미용학원3층,,054 - 333 - 5829,,,35.9711543,128.9396292
4Upc2cJKRszwe4lm08roqg==,한국에스피아이연합회,서울특별시 종로구,(03150) 서울특별시 종로구 우정국로 39 3층 지도보기,http://www.kspia.kr/,02 - 775 - 0071,"탐정 , 도감청 , 심리상담",이혼상담사 자격취득과정 | 범죄심리상담사 자격취득과정 | 도감청탐색사 자격취득과정 | PIA탐정사 특별과정 | PIA탐정사 일반과정 | PIA탐정사 최고경영자과정,37.5726254,126.9826790
IIaBJWnT64v55c58iGdhdg==,구미대학교부설평생직업교육원,경상북도 구미시,(39213) 경상북도 구미시 야은로 37 성실2동 평생교육원,https://365.gumi.ac.kr/,054 - 440 - 1430,구미,,36.1509795,128.2889001
2Chae7xukuH8z1tWhxv+mw==,롯데마트문화센터성정점,충청남도 천안시,(31109) 충청남도 천안시 서북구 성정두정로 1 3층 문화센터,https://culture.lottemart.com/cu/common/main.do,041 - 629 - 8590,"롯데마트 , 롯데마트 성정점 , 롯데마트 문화센터",[4주] 초보도 OK 셔플댄스 기초반 | 초보도 OK 셔플댄스 기초반 | 초보도 OK 셔플댄스 기초반 | [4주] 리듬 타GO 셔플댄스 중급반 | [4주] 리듬 타GO 셔플댄스 중급반 | [4주] 리듬 타GO 셔플댄스 중급반 | 리듬 타GO 셔플댄스 중급반 | 토요 라인댄스 중급반 | [수금] 라인댄스 초중급반 | [월목] 몸치탈출 라인댄스 초급반,36.8262797,127.1400903
u6/Dt5c7EAPrkazXHpkZdA==,아이이토익학원,강원특별자치도 원주시,(26392) 강원특별자치도 원주시 능라동길 27 3층 307호,https://blog.naver.com/ietoeic,010 - 9952 - 9091,"원주토익 , 원주토익학원 , 원주토익전문학원",,37.3332833,127.9280282
cutvTTcgHMRcA8bee6fBEg==,풀잎문화센터연수지부,인천광역시 연수구,(21909) 인천광역시 연수구 학나래로118번길 9 208호,https://naver.me/5qDeSBa8,032 - 821 - 0110,"가죽공예 , 홈패션(미싱) , 퀼트, 자수, 장애",,37.4279752,126.6985046
KsjC9s8i4Uvq8hR5uCHn/A==,코어드빈바리스타학원,서울특별시 강서구,(07567) 서울특별시 강서구 공항대로45길 75 제일빌딩 2층 코어드빈바리스타학원 지도보기,,02 - 3664 - 1884,"바리스타 , 커피자격증 , 커피학원",(기초)커피바리스타2급 자격증취득과정,37.5582731,126.8564188
i1nBTdmE4uwgR0skc7f/Ww==,한양대학교원격평생교육원,서울특별시 성동구,(04763) 서울특별시 성동구 왕십리로 222 국제관 116호 209호,hyon.hanyang.ac.kr,02 - 2220 - 2644,"건축공학 , 사회복지학",건축공정관리 | 건축구조 I | 사회복지실천기술론 | 사회복지법제와실천,37.5575753,127.0466899
7sSu6xRs0mshKuVvNSCV3A==,오로라바리스타학원,경기도 광주시,(12780) 경기도 광주시 고불로 43-1 3층(롯데리아 태전점건물),https://blog.naver.com/orora2389,031 - 797 - 2389,"바리스타자격증 , 라떼아트 , 핸드드립",바리스타2급+라떼아트,37.3931332,127.2330265
0H8llo0M5yDk3153hN08og==,에덴실용음악학원,광주광역시 북구,(61050) 광주광역시 북구 설죽로 416 신일곡골드클래스 아파트 상가 2동 203호,cafe.daum.net/eedenschool,010 - 3603 - 1117,"Guitar 통기타 , Drum 드럼 , Saxophone",Drum Lesson | Guitar Lesson,35.1962153,126.9016514
0bQh9JaAc2JH18plxABLDw==,중앙사이버평생교육원,경기도 안양시,(14092) 경기도 안양시 만안구 문예로 35 익성빌딩 3층,https://www.joongangcyber.com/,00 - 1566 - 1461,"문헌정보학 , 사회복지사 , 보육교사",,37.3857812,126.9315862
EYnMTlqR9goQu7QGe/2G2A==,중랑구발달장애인평생교육센터,서울특별시 중랑구,"(02103) 서울특별시 중랑구 동일로 759 4,5층 지도보기",https://www.jungnangedu.or.kr/,02 - 6953 - 0704,,,37.5981521,127.0797585
atu0AU6/+ZVDWQ1FZyvb6g==,흥업면주민자치위원회,강원특별자치도 원주시,(26403) 강원특별자치도 원주시 흥업면 울업1길 3 다목적복지센터,,033 - 761 - 9481,흥업,,37.3026120,127.9211781
CoYmkdMFbeLXRjFlooRiyQ==,서울디지털평생교육원교육지원센터,서울특별시 마포구,(04157) 서울특별시 마포구 독막로 320 4층 주식회사 에스디유,http://pass.sdulife.com/,00 - 1644 - 8209,"사회복지사1급 , 직업상담사 , 컴퓨터활용능력",,37.5429883,126.9478769
SKVzXo4Fng2aodNuZzg/EQ==,울산북구알비제과제빵바리스타학원,울산광역시 북구,(44236) 울산광역시 북구 박상진12로 11 6층 울산북구알비제과제빵바리스타학원ㄷ 지도보기,,052 - 281 - 2105,"바리스타 , 제과 , 제빵",바리스타 자격증과정 2급 | 바리스타1급,35.6014883,129.3653329
7QWV4LLuDonk6VwgF0i8qQ==,희망누리평생교육원,서울특별시 양천구,(07988) 서울특별시 양천구 목동서로 131 302호,https://hopenuri2024.mycafe24.com/,010 - 8690 - 8779,"평생교육(컴퓨터) , 회계교육 , 북한이탈주민교육",,37.5318644,126.8754559
IsehL/xpwu14y3eY/D5lQQ==,건강나눔장애인평생교육원,전라남도 목포시,(58724) 전라남도 목포시 삼일로13번길 21 1층,http://www.withealth.co.kr,061 - 272 - 7727,,,34.7939771,126.3813891
u8xzXgH+T6lnvXCwHOtskA==,대한중장비운전학원(주),대전광역시 동구,(34700) 대전광역시 동구 대종로 9-31 대한중장비운전학원(주),http://www.대한중장비운전학원.com,042 - 673 - 2003,"굴착기/지게 , 롤러/기중기 , 소형지게차소형굴착기",기중기1시간 | 기중기실기 | 롤러1시간 | 롤러실기 | 소형지게차굴착기 | 소형굴착기 | 굴착기1시간 | 지게차1시간 | 소형지게차,36.2949860,127.4593127
gIyEY2iw3wSCyA/HKdEdBA==,청담더뷰티미용학원,전라남도 목포시,(58693) 전라남도 목포시 비파로 37 5층,,061 - 283 - 1771,"목포미용학원 , 목포네일학원 , 목포헤어학원",,34.8019716,126.4271565
0nO38gLuDAFE4n7IDCBioQ==,시사쿡요리아카데미학원,서울특별시 강남구,(06241) 서울특별시 강남구 테헤란로4길 28 14층,https://www.sisacook.com/,570 - 4433,,세계요리과정 | 카페베이커리 제과디저트실무과정 | 제빵베이킹실무과정 | 떡제조기능사 | 제빵기능사자격증과정 | 제과기능사자격증과정 | 바리스타 이론 실기과정 | 양식기능사자격증 | 한식자격증 | 처음요리,37.4965334,127.0301212
iNO9GUpFKHo6yxkqjHlCkg==,SH애견미용학원,충청남도 예산군,(32431) 충청남도 예산군 예산읍 역전로 74 2층,shpetacademy.modoo.at,041 - 331 - 2083,"반려동물 미용,펫용 , 애견미용, 펫 트머 , 애견훈련, 행동교사",,36.6858052,126.8296595
0QOccAYzaCUvBi6qRNWvdw==,공감마을작은도서관,대전광역시 서구,(35215) 대전광역시 서구 청사서로 41 둔산신협 지하1층,www.gonggamvillage.org,010 - 6795 - 4996,"건강취약계층 , 힐링프로그램 , 사회복귀",,36.3614184,127.3755844
o6qZsZvoOt0KKpxAcfh03A==,올라운드필라테스월요가평생교육원,인천광역시 미추홀구,(22114) 인천광역시 미추홀구 숙골로 94 302호 지도보기,,010 - 5590 - 2401,"필라테스 , 요가 , 임산부",,37.4706364,126.6633194
qiTA2yLYhP5tkaBuRLeqOQ==,아뜰리에뷰티아카데미미용학원,경기도 오산시,(18110) 경기도 오산시 청학로 266-29 305호,www.atelierkorea.com,031 - 372 - 6003,"헤어자격증 , 헤어실무 , 생활헤어",,37.1717814,127.0615022
4Vr3gyWUIo6lalYmkbEGmQ==,한국이용학원,충청남도 천안시,(31180) 충청남도 천안시 서북구 차돌들길 6 우준빌딩 2층 한국이용학원,,041 - 577 - 1353,"천안 남성커트전문학 , 천안 이용학원 , 천안이용기능장교육",,36.7975136,127.1295781
GE4x2gkeJrwwJ+NPitb79w==,포항에너지기술학원,경상북도 포항시,(37792) 경상북도 포항시 남구 해동로 100 포항에너지기술학원,,054 - 272 - 1003,"포항온수온돌기능사 , 포항에너지관리기능장 , 포항에너지기술학원",온수온돌기능사,36.0283361,129.3722515
qUcKrkZTuDwxifyz8iBzVg==,더올바른필라테스단대오거리점평생교육원,경기도 성남시,"(13148) 경기도 성남시 수정구 산성대로 373 4층 407,408호",https://naver.me/G9rLNhv5,010 - 2478 - 7248,"필라테스 , 운동 , 헬스",기구필라테스 개인레슨 | 기구필라테스 그룹레슨,37.4457845,127.1564795
tjVbdy3v+bYk3GSvbYGd6g==,구성원격평생교육시설,경기도 부천시,(14544) 경기도 부천시 원미구 소향로 31 청죽타워5층 구성커뮤니케이션즈,https://www.gusungacademy.com/shop/,032 - 205 - 8598,,,37.5038735,126.7513442
wGPYXexTqRF+eNQd7Aj0sA==,한결요리제과제빵학원,경상북도 구미시,(39229) 경상북도 구미시 금오시장로2길 5 우원빌딩2층 지도보기,www.한결요리제과학원.kr,054 - 457 - 0864,"한결요리 , 구미제과제빵학원",,36.1251830,128.3408536
oU5OkPG/Pvx+8pxwejwKtg==,레이크커피바리스타학원,경기도 화성시,(18501) 경기도 화성시 동탄대로 182 404호 레이크커피바리스타학원 지도보기,,031 - 375 - 1285,바리스타,,37.1707362,127.1072649
8gWau0j3bLaxDYhGznfYyQ==,에스비에스(SBS)아카데미컴퓨터아트학원안양,경기도 안양시,"(14072) 경기도 안양시 동안구 평촌대로217번길 15 6층, 7층",https://anyang.sbsart.com/,031 - 346 - 8561,,,37.3906342,126.9550282
CRKOJBi4gJhYD0oyc/WBsw==,봄필라테스관악평생교육원,서울특별시 관악구,(08747) 서울특별시 관악구 양녕로 46 2층 지도보기,www.bompilates.com,02 - 872 - 3201,"기필필테스 그룹레슨 , 기구필라테스 1:1 , 필라테스지도자과정",,37.4861626,126.9472278
1cTBkJt0CqGCH0ukMfN1tQ==,오산세교종합사회복지관,경기도 오산시,(18109) 경기도 오산시 수청로 192 4층 오산세교종합사회복지관,https://www.osgwc.or.kr/main/,031 - 290 - 8510,"오산시 , 교육문화 , 프로그램",,37.1777615,127.0448579
av2EpkNr5A7ZJkFD9N+ONA==,남경자동차운전전문학원,전라남도 목포시,(58670) 전라남도 목포시 선곡로 20 남경자동차학원,,061 - 282 - 5555,,,34.8164168,126.4306169
KhhRQevkZHCXipgKOEBCvA==,세잔직업전문학교,경상남도 진주시,(52759) 경상남도 진주시 남강로 688 세잔빌딩 1.2.4.5.6층,www.cezanne.co.kr,055 - 746 - 0266,"바리스타,제과제빵 , 유튜브,컴활,캐드 , AI,디자인,전기",,35.1912183,128.0869152
2slZPlx9g9WA0NtXTtlzSw==,동래음식나라조리제과제빵학원,부산광역시 동래구,(47877) 부산광역시 동래구 충렬대로238번길 7 711호,https://naracook.co.kr/,010 - 5610 - 5409,"한식 , 제빵 , 생활요리",,35.2010118,129.0855628
DGCKX8ko0P+8mZwnJ26fEA==,온플레이스댄스학원,전라남도 광양시,(57746) 전라남도 광양시 광양읍 용강2길 13-14 2층 온플레이스댄스학원,,010 - 2344 - 5762,"광양댄스학원 , 광양읍댄스 , 광양",,34.9766321,127.6088149
h/lmlEa78dbilcS8qlk4wQ==,한신대학교부설평생교육원,경기도 오산시,(18101) 경기도 오산시 한신대길 137 새롬터 14102호(평생교육원 사무실),https://www.hs.ac.kr/life/index.do,031 - 379 - 0191,"한신대 , 오산 , 한신대평생교육원",,37.1925318,127.0273334
t4+8MDcdZBuK6Hsi6qhq7A==,중앙애견미용학원,서울특별시 중랑구,(02220) 서울특별시 중랑구 면목로 377 2층 지도보기,https://www.joongang-professional.com/,02 - 455 - 8484,"애견미용 , 애견미용사자격증 , 애견미용사",,37.5857093,127.0881956
LNnvsE9cH9zriLxWBZXMnw==,이젠아카데미DX교육센터(종로),서울특별시 종로구,"(03189) 서울특별시 종로구 우정국로2길 37 5층, 6층 이젠아카데미 DX교육센터",https://jr.ezenac.co.kr/,02 - 733 - 8781,,"[주말] 포토샵,일러스트 활용 굿즈디자인(MD상품,펜시,문구,캐릭터) | 구글 애널리틱스(GA) 디지털마케팅(온라인 데이터 분석) | 쇼핑몰 마케팅 광고홍보 & 기획실무(네이버 검색광고,인스타스폰서,피드광고,구글애즈)",37.5696716,126.9852221
VfkX7kRnoA2ENYhw+xWw6Q==,강남구평생학습센터,서울특별시 강남구,"(06346) 서울특별시 강남구 영동대로 22 일원평생학습센터 (일원스포츠문화센터1층, 일원동)",www.longlearn.go.kr,3423 - 7955,,,37.4911871,127.0752033
n1vINR8kY1FKIlIGzFzoMA==,벨루스댄스스포츠학원,충청남도 논산시,(32974) 충청남도 논산시 중앙로 434 벨루스댄스스포츠학원302호(오거리로테오타운3층),,041 - 736 - 6999,논산시벨루스댄스학원,,36.2023786,127.0871654
n2Jfp9olu9NVXgYPYMoZOg==,다산요리제과제빵학원,경기도 남양주시,(12217) 경기도 남양주시 경춘로 1299 4층 가남빌딩 다산요리제과제빵학원,https://blog.naver.com/dasancook,031 - 559 - 5253,"제빵기능사 , 제과기능사 , 한식조리기능사",제빵실기반 | 제과실기반 | 원데이클래스(제과제빵),37.6499611,127.2367497
/9QtMj7SStqgUPd/y2ttvA==,조은중장비운전학원,전라남도 순천시,(58005) 전라남도 순천시 해룡면 상성길 236-5 조은중장비운전학원,,061 - 723 - 0009,,,34.9402290,127.5381275
j7VWLAJsabySajfWa+J1yQ==,두산평생학습센터,대구광역시 수성구,(42169) 대구광역시 수성구 들안로16길 78 두산평생학습센터,https://lll.suseong.kr,053 - 666 - 2981,,,35.8391860,128.6181200
a00MvTH2gGZgraM6LCgbrg==,국제커피제과제빵아카데미학원,경상남도 창원시,(51605) 경상남도 창원시 진해구 용재로 18 602호,https://www.ywbarista.com/,055 - 547 - 8584,"바리스타,라떼아트 , 제과,제빵 , 브런치,샌드위치",제빵기능사 과정 | 제과기능사 과정 | 바리스타 1급 자격증 | 바리스타 2급 자격증 | 케이크디자인 과정 | 제과디저트 과정 | 제빵디저트 과정 | 카페브런치 과정 | 샌드위치샐러드 과정 | 제과제빵 원데이 과정,35.1018488,128.8118169
OUU7r3E4Rm9DMeYOwnXbag==,존스커피바리스타학원금동점,광주광역시 동구,(61488) 광주광역시 동구 백서로 115-1 5층 존스커피바리스타학원,https://blog.naver.com/johnscoffee_academy,062 - 373 - 6515,"바리스타 , 커피 , 바리스타2급",바리스타2급실기반,35.1417243,126.9180963
wH6jnIMeYvwPA40CkTjg/w==,부광회계학원,부산광역시 부산진구,"(47357) 부산광역시 부산진구 범일로 172 , 3층(범천동)",https://bkacademy.co.kr/,051 - 647 - 6402,"전산회계 , 전산세무 , 자격증",경리실무 관리자 | 경리실무 기초,35.1454000,129.0595925
MM11jxGc/KhYU7mdIsiv3g==,커리어허브미디어평생교육원,서울특별시 동작구,(07015) 서울특별시 동작구 동작대로 25-1 2층,,02 - 6294 - 0113,"취업 , 진로 , 직무",,37.4787391,126.9809994
I82zWrVPDpzsNQzWlu5U3w==,한국자동차운전전문학원,광주광역시 남구,(61739) 광주광역시 남구 서문대로 541 1층,hankukcar.co.kr,062 - 674 - 1900,"운전면허 , 운전연수 , 면허증",,35.1107729,126.8903499
Ck3QaJ0tawctdvEP2onmTA==,경상남도장애인종합복지관,경상남도 창원시,(51144) 경상남도 창원시 의창구 봉곡로97번길 85 경상남도장애인종합복지관,https://assist.or.kr/,055 - 237 - 2223,,사회적응훈련반 | 수어교실 | 책과마술 | 요가교실 | 나도연주가 | 댄스교실 | 음악교실 | 원예교실 | 화요명화 | 장애인밴드,35.2504389,128.6789419
i1lLZcHhHfJ1yzwhHKXqng==,현대정신분석교육원,서울특별시 종로구,"(03074) 서울특별시 종로구 성균관로 28 2층, 3층 지도보기",https://www.ucp.or.kr/,02 - 2269 - 2477,"심리상담 , 회복 , 중독",,37.5851858,126.9972515
BI7ovQ0QB3kcbHmm00Ct/Q==,피움직업전문학교,경상북도 문경시,"(36970) 경상북도 문경시 중앙8길 2 2층, 3층",,010 - 4090 - 5174,"화훼장식 , 플라워 , 바리스타",카페 바리스타 실무 및 창업 과정 (심화) | 커피 바리스타 자격증 취득 과정 (기초) | 플로리스트 실무 및 창업 과정 (심화) | 플로리스트 자격증 취득 과정 (기초) | 커피 전문가 양성 바리스타 과정 | 꽃예술 전문가 양성과정 | 카페 창업을 위한 바리스타 실무 | 플라워샵 창업 실무과정 | 실전 플라워 디자인 마스터 | 커피 로스팅과 향미 분석,36.5959553,128.2002341
rkYI2Zi+LExjPX7Jg9T8zg==,온양아산중장비운전학원,충청남도 아산시,(31441) 충청남도 아산시 염치읍 현대로 16-13 온양아산중장비운전학원,www.onyangasan.co.kr,041 - 543 - 4888,"중장비운전 , 중장비학원 , 3톤미만지게차",,36.8174779,126.9696230
kCAcOw/GZc5rsepRD5XCbg==,고흥자동차운전전문학원,전라남도 고흥군,(59536) 전라남도 고흥군 고흥읍 송곡길 4-9 고흥자동차운전전문학원,,061 - 835 - 3161,"면허 , 자동차",,34.6224345,127.2969131
YCq+q+0ENlyUU6W41eiNjg==,천일자동차운전전문학원,전라남도 곡성군,(57525) 전라남도 곡성군 곡성읍 곡고로 277 천일자동차운전전문학원 지도보기,www.1001drive.co.kr,061 - 363 - 2200,"빠른운전면허 , 3일반 , 고3운전면허",,35.2936716,127.3257031
K5RNPmH4gJzcDiqE39LmJg==,신세계제과제빵전문학원,부산광역시 중구,(48929) 부산광역시 중구 중앙대로 75 삼부빌딩 2층,http://blog.naver.com/gobaking,051 - 468 - 5005,"제과기능사 , 제빵기능사 , 바리스타",바리스타 2급 자격증(실기),35.1043720,129.0359979
6EpYeRfwCVr1oiaCfKNooQ==,세방컴퓨터학원,대구광역시 수성구,(42119) 대구광역시 수성구 명덕로 455 수성3가 롯데캐슬아파트상가 301호,,053 - 751 - 6773,"컴퓨터실무활용과정 , 포토샵&GTQ자격증 , 컴퓨터활용능력실기",중장년을 위한 AI 도구 활용 | 중장년 디지털리터러시 | 컴퓨터활용느력 2급 실기 취득과정 | 컴퓨터활용능력1급실기 자격취득과정 | ITQ 엑셀 자격취득과정 | ITQ한글 자격취득과정 | AI업무 생산성도구 활용 | 디지털리터러시,35.8562366,128.6199470
tTqETZFCUOiDPOOcT3+fQw==,송호대학교부설평생교육원,강원특별자치도 횡성군,(25242) 강원특별자치도 횡성군 횡성읍 남산로 210 송호대학교 평생교육원 지도보기,https://www.songho.ac.kr/lifelongEdu/index.do,010 - 8318 - 6485,,,37.4730161,128.0019573
zupxob26N9eyE0CO6R7iOA==,올댓뷰티아카데미미용학원,서울특별시 노원구,(01751) 서울특별시 노원구 노해로 488 근호빌딩 10층 올댓뷰티아카데미,nowon.allthat-beauty.com,939 - 5177,,,37.6543238,127.0621841
wmpzKzYx/sJY3+9JxpvXZQ==,정상컴퓨터전산회계학원,경기도 부천시,(14641) 경기도 부천시 원미구 부천로 34 3층,www.jungsang.co.kr,032 - 612 - 4004,"컴맹탈출과문서작성 , ITQ와컴퓨터활용능 , 전산세무회계",,37.4871716,126.7837285
uJ3v/cMrFdaPbPKCia0myA==,테슬라필라테스평생교육원,경기도 평택시,(17852) 경기도 평택시 평남로 929 201호,teslapilates.kr,010 - 7689 - 7419,"테슬라필라테스 , 비전동 , 평택",,37.0037253,127.1052294
0VYybb/JhRKW0dngk4pImw==,바이연평생교육원,인천광역시 서구,(22705) 인천광역시 서구 승학로 538 2층,,010 - 5816 - 0406,"인천평생교육원 , 인천서구평생교육원 , 서구평생교육원",,37.5660013,126.6794963
zqFkvaR7n1Dm/rx4z5vLrA==,구미강남아카데미뷰티미용학원,경상북도 구미시,(39220) 경상북도 구미시 역전로 8 4층,https://blog.naver.com/gnbeautyacademy,054 - 457 - 7977,,피부미용 | 메이크업 | 헤어미용 | 네일미용,36.1294747,128.3316141
7B2w0ecV8NAWny6xGxGTDg==,창동자동차운전전문학원,서울특별시 도봉구,(01397) 서울특별시 도봉구 도봉로136길 61 창동자동차학원 지도보기,https://www.hidi.co.kr/,02 - 907 - 7744,"운전면허 , 면허증 , 운전학원",,37.6597291,127.0447176
YXUKzS91Nbe0teseDAfXXg==,김시언미주아뷰티아카데미미용학원,경상북도 영천시,(38838) 경상북도 영천시 중앙동3길 50 2층,,010 - 3564 - 1649,,,35.9747777,128.9318191
mhr4S7On1ifu9Q8U3/ExrQ==,질라라비장애인야학,대구광역시 동구,(41076) 대구광역시 동구 동내로 21 SH빌딩 4층 지도보기,http://www.jangjigong.org/,053 - 953 - 9461,"질라라비장애인야학 , 질라라비야학 , 질라라비장애인",사물놀이 | 연극반 | 댄스반 | 노래반 | 문화예술수업 난타반,35.8733255,128.7332733
scIv9S29eDv4Ndc0yiopCw==,춘천여성인력개발센터,강원특별자치도 춘천시,(24327) 강원특별자치도 춘천시 외솔길 25 3층 춘천여성인력개발센터,https://www.ccwomen.or.kr/,033 - 243 - 6474,"춘천여성 , 교육 , 취업",,37.8573059,127.7510039
0q1CgR6+Ly+9Tehigt7GBA==,씨엘필라테스안산고잔점평생교육원,경기도 안산시,"(15462) 경기도 안산시 단원구 광덕동로 91 503호, 504호",https://blog.naver.com/clpilates8,031 - 482 - 9654,"필라테스 , 기구필라테스 , 다이어트",,37.3126523,126.8325699
FXSGHZjS75Z259CdV4+sQQ==,필라테스케밍오산점평생교육원,경기도 오산시,(18141) 경기도 오산시 대원로 14 5층 필라테스 케밍,https://pilateskeming.com/,031 - 373 - 9608,"필라테스 , 오산필라테스 , 오산필라테스바우처사",,37.1461828,127.0699582
hrhRO5BDMgEbLrKn9TiBUw==,동성직업전문학교,경기도 수원시,(16470) 경기도 수원시 팔달구 세지로 271 .,https://dsung.or.kr/,031 - 235 - 0496,"조경 도시농업 , 전기기능사 , 헤어커트",영상편집 및 특수효과 향상과정(프리미어프로 애프터이펙트) | 조경기능사 필기 취득과정(주말반) | 조경기능사 필기 취득과정(주말반) | 조경기능사 실기 취득과정(평일반) | 조경기능사 필기 취득과정(평일반) | 도시농업관리사 취득과정(평일반) | (도시농업관리사)귀농연습 | (도시농업관리사 과정) 귀농 이렇게 하자! | (도시농업관리사 과정) 귀농 연습 | 헤어커트 과정,37.2752968,127.0234853
qQq+JnZaSwVOPJcl5gaL/Q==,동양직업전문학교,충청남도 천안시,(31121) 충청남도 천안시 동남구 성황8길 13 동양빌딩,https://www.dycad.co.kr/,041 - 555 - 7695,"CAD, 디자인 , 한글,파포,엑셀 , 회계2,1급,세무급",,36.8154755,127.1499608
MQzdUHEujFUrnpabiokeMw==,진주직업전문학교,경상남도 진주시,(52757) 경상남도 진주시 남강로 723 원예농협 4층,http://www.iteds.or.kr/,055 - 746 - 6661,"진주직업전문학교 , 컴퓨터자격증 , 직업훈련",전산회계2급 자격증취득 | 컴퓨터활용능력2급실기 | ITQ한글 ITQ파워포인트 취득과정 | ITQ엑셀 및 엑셀 실무 활용 | ITQ한글 ITQ파워포인트 취득과정 | 컴퓨터활용능력2급실기,35.1917189,128.0908346
QHT0OvFCgL0VZ+cUtG9Ypw==,토픽코리아원격평생교육원,서울특별시 구로구,(08381) 서울특별시 구로구 디지털로 271 701호(벽산디지털밸리 3차),edutpk.co.kr,010 - 4599 - 5746,"한국어 , 한국어교원 , 한국어교원3급",한국어교원 3급 기출문제 풀이 과정(야이합) | 한국어교원 3급 실습과정 | 996067,37.4833068,126.8935987
YOxGcpGxgQUTJ7+lI9BtAw==,장애인평생교육원꿈터글방,광주광역시 북구,(61155) 광주광역시 북구 월동로 15 1층,,062 - 269 - 7942,,한자급수교실 | 시창작교실 | 한자교실 | 스케치교실 | 문학교실 | 한자교실 | 하모니카교실 | 생활체육교실 | 디지털스포츠 | 힐링노래교실,35.1730918,126.9346881
pGuXE3fP901vKBBC/lywzA==,이젠아카데미컴퓨터학원,경기도 안양시,(13991) 경기도 안양시 만안구 안양로 336 금강빌딩8층,https://aya.ezenac.co.kr/index_direct.asp,031 - 468 - 1114,"컴퓨터자격증 , 안양 , 컴활",,37.4018732,126.9193527
vLclGMUm2yvfjlt3SYYQWw==,영등포구발달장애인평생교육센터,서울특별시 영등포구,(07292) 서울특별시 영등포구 문래북로 105 어울림센터 5-7층,https://ydpedu.or.kr/,02 - 2068 - 6466,"영등포 , 장애인 , 발달장애인평생교육",,37.5201166,126.8972093
k89sVMAcmF8Hc9oZGrWh8A==,101머니랩:타로심리상담사.사회복지사.컴활AI자격증,서울특별시 성동구,(04793) 서울특별시 성동구 아차산로7길 15-1 3층,www.101moneylab.co.kr,070 - 7514 - 0582,"사주타로심리상담사 , 바리스타생활지원사 , AI자격증네일아트",마사지다이어트강의 | 면접화술스피치강의 | 손금사주명리학자격증 | 네일아트 자격증(네일자격증교육) | 커피바리스타자격증(카페창업교육) | 생활지원사(사회복지사/요양보호사급여정보) | AI교육지도사자격증(챗GPT컴활) | 타로자격증(AI타로카드리딩) | 타로자격증(1급타로심리상담사),37.5464577,127.0544730
QbFh4xHnLS76JxF3ZxhbGA==,음성군금빛평생학습관,충청북도 음성군,(27633) 충청북도 음성군 금왕읍 금빛공원2길 2 금빛평생학습관,https://edu.eumseong.go.kr,043 - 871 - 4921,,,36.9898818,127.5872376
5//jZm2SSlHKtJ+tyzpmGA==,민광숙요리학원,인천광역시 부평구,(21438) 인천광역시 부평구 동암남로 23 3층,www.mkscook.com,032 - 429 - 3100,"국비지원요리학원 , 한식조리기능사학원 , 인천시국비지원학원",한식조리기능사 | 밑반찬조리 | 밑반찬조리,37.4708131,126.7063751
uzYI2QaTj44vgBNxVpXfsg==,도담공예학원,전북특별자치도 전주시,(54956) 전북특별자치도 전주시 완산구 서곡1길 5-9 1층 지도보기,,010 - 2652 - 4151,,,35.8343514,127.0999826
2ehKaqLfAzS+uoKyH/vBlg==,굿타임커피학원,경기도 파주시,(10915) 경기도 파주시 금빛로 27 6층 605호 굿타임커피학원 지도보기,https://cafe.naver.com/goodtimecoffee,010 - 7772 - 5018,"바리스타 , 커피 , 로스팅",,37.7522071,126.7662948
2NlyGL41EIo8A2A8f8XuwQ==,순복음대학원대학교부설평생교육원,서울특별시 관악구,(08808) 서울특별시 관악구 과천대로 927 순복음대학원대학교,sts@sts.ac.kr,02 - 9184 - 3858,"노인 , 치매 , 자격증",,37.4734214,126.9818706
pyZ4RoaBVyJPr2EYovmUPw==,여수도자기학원,전라남도 여수시,"(59686) 전라남도 여수시 신기남3길 19-1 1층, 여수도자기학원",,061 - 681 - 2007,"도자기 , 도자기체험 , 도자공예",도자기상품제작,34.7603204,127.6704137
LhHTEU84UU4HC509PT1mLg==,씨티우먼뷰티아카데미학원,경상남도 진주시,"(52758) 경상남도 진주시 진주대로 1040 3,4층",http://www.citywoman.co.kr,055 - 748 - 1010,"미용사 , 왁싱 , 속눈썹",메이크업(속눈썹연장) | 메이크업(속눈썹펌),35.1925642,128.0847656
vpFuAtO6QUAqSJpr652Eeg==,퍼스트바리스타제과제빵학원,경기도 의정부시,"(11695) 경기도 의정부시 태평로73번길 53 2층,3층 퍼스트아카데미",https://ujb.firstcoffee.co.kr/?_gl=1*10kdqb3*_gcl_au*Nzk2NDM2OTEzLjE3NDQ4NjkyMDM.*_ga*MTAxOTM5ODI1Ni,031 - 928 - 6912,"바리스타 , 제과제빵 , 카페디저트",,37.7389458,127.0485999
tqIi8Pg036TvQ8qwOk8rSw==,여수동성자동차운전전문학원,전라남도 여수시,(59747) 전라남도 여수시 신월로 496-12 동성운전전문학원,https://dsschool.qshop.ai/,061 - 643 - 2222,"여수 운전학원 , 운전학원 , 자동차학원",,34.7230004,127.7008366
mbXBrtWxlBPiqpWe9VbKwA==,비트컴퓨터학원,전북특별자치도 남원시,(55764) 전북특별자치도 남원시 의총로 81-10 3층,,063 - 626 - 9060,,OA활용 | OA활용,35.4080584,127.3759552
zlMCp2S07j9ZOIfhx56Fcw==,아띠공예학원,전라남도 나주시,(58217) 전라남도 나주시 상야4길 22 빛가람동203~2스퀘어가든3층B동309호,,010 - 2108 - 1113,"토탈공예 , 한지공예 , 냅킨공예",한지공예 | 토탈공예 | 토탈공예 | 한지공예 | 냅킨아트 | 토탈공예 | 한지공예,35.0227487,126.7917513
iNAtJjqPs6yxBB7sc4ZYPw==,비즈필라테스사천평생교육원,경상남도 사천시,(52520) 경상남도 사천시 사천읍 옥산로 30 3층 비즈필라테스,,010 - 4422 - 9712,,필라테스강사양성(체형분석) | 필라테스강사양성(기능운동) | 기구필라테스(2:1수업) | 필라테스강사양성(소도구) | 기구필라테스(1:1수업) | 기구필라테스(그룹수업) | 기구필라테스(그룹수업) | 기구필라테스(2:1수업) | 기구필라테스(1:1수업) | 기구필라테스(그룹수업),35.0795486,128.0862411
iCGIpBad+qGmA5kKz1if0g==,한국문화예술평생교육원,서울특별시 광진구,(05039) 서울특별시 광진구 자양로 158 2층 1호,www.kosas.org,02 - 457 - 3132,"평생교육 , 문화예술 , 실용음악",,37.5416551,127.0841741
VHBwUBwj1YHYrbxzd3A11Q==,제주건축기술학원,제주특별자치도 제주시,(63337) 제주특별자치도 제주시 조천읍 신촌서5길 12-1 제주건축기술학원,https://blog.naver.com/jata2018,064 - 783 - 4839,,,33.5300028,126.6148410
Aqbhu+7jtRunMurG/tN0Sw==,강원도립대학교평생교육원,강원특별자치도 강릉시,(25425) 강원특별자치도 강릉시 주문진읍 연주로 270 강원도립대학교 평생교육원,https://www.gw.ac.kr/og/lec,033 - 660 - 8140,,색소폰 앙상블 | 연필로 그리는 소묘 | 예술의 경지로 유화 | 캘리그라피 | 파크골프 기초 | 라인댄스 심화 | 나의 인생 영화 속 음악 | 파크골프지도자 2급 | 프리오션 스노클 다이버 | 어반스케치,37.8769388,128.8298524
6WIFyJ4witcdlJGyhcJLFw==,동대문시각특화장애인복지관,서울특별시 동대문구,(02513) 서울특별시 동대문구 장안벚꽃로7길 5 2층 사무실,https://www.dongsibok.or.kr/,02 - 2244 - 3100,"시각장애인 , 장애인복지관 , 문화여가프로그램",드럼교실 | 소리담(오카리나) 프로그램 | 공예교실 | 시각장애인 독서지원 | 소리담(기타) 프로그램 | 난타,37.5831557,127.0732160
zIjzO1HOiBqIyASeMsQ3Vg==,전북장애인연맹,전북특별자치도 익산시,(54662) 전북특별자치도 익산시 익산대로 191 1층,,063 - 852 - 7269,"쿠킹클라스 , 천연아로마테라피 , 인권교육",토탈공예B | 천연아로마테라피 | 토탈공예,35.9433758,126.9479993
iIwRTBrKec2Nd/XKg0C2RA==,남양주가죽공예학원,경기도 남양주시,(12163) 경기도 남양주시 화도읍 마석로26번길 51-4 js빌딩 3층 301호,https://blog.naver.com/nla3942,010 - 3000 - 3942,,,37.6532627,127.3127019
Pp+13OSxDMbo7CUYUCWsHw==,유니센스일대일영어학원홍대입구점,서울특별시 마포구,(03995) 서울특별시 마포구 동교로 188-1 2층 유니센스,https://www.unisense.co.kr,02 - 325 - 4522,"영어회화 , 일대일영어회화 , 영어회화학원",,37.5569827,126.9223988
A1EFnXd45btgrytLUilZYg==,영남이공대학교부설평생교육원,대구광역시 남구,(42415) 대구광역시 남구 현충로 170 천마스퀘어 5층 평생교육원,https://edu.ync.ac.kr/,053 - 650 - 9552,"요가수업 , 타로카드수업 , 필라테스수업",,35.8482251,128.5819932
pnRYZnKX+wnEaF39KtvwKQ==,(주)경남지식인재개발원,경상남도 밀양시,(50440) 경상남도 밀양시 삼문중앙로 38 중앙빌딩 3층,http://www.myeduc.co.kr/,055 - 356 - 8777,"밀양평생교육 , 바리스타 , 병원동행매니저",병원동행매니저 | 아로마테라피클래스 | 보르도와인마스터클래스 | 한식소스 마스터 | 디저트 마스터 | 카페 브루잉 마스터 | 카페바리스타 1급 | 카페바리스타 2급,35.4849582,128.7560077
AOakqqwV2tni2GTl+VAOfQ==,AllPass(올패스)캠퍼스원격평생교육원,서울특별시 구로구,(08389) 서울특별시 구로구 디지털로30길 28 509호 일부,allpasscampus.co.kr,02 - 1661 - 5575,"경영 , 사회복지 , 올패스",,37.4821277,126.8953134
5nvNsP+l8n+ppd9TBWajpA==,이브필라테스부천점평생교육원,경기도 부천시,(14641) 경기도 부천시 원미구 부천로 26 2층 이브필라테스,https://eve-pilates.co.kr/eve/02/bucheon.html,010 - 6612 - 6663,"부천필라테스 , 부천역필라테스 , 기구필라테스자격증",,37.4865030,126.7836021
EaiWhqr0d6y2t7no+QcDvA==,배론원격평생교육원,서울특별시 강서구,(07547) 서울특별시 강서구 양천로 583 A동 711호,https://www.baeron.com/,02 - 2149 - 2646,,아동수학지도 | 아동관찰및행동연구 | 놀이지도 | 사회복지현장실습 | 보육실습 | 외국어로서의한국어교육실습,37.5570451,126.8642592
W4VHUdU9UVbWZKXeDYJ6Xw==,사천자동차운전전문학원,경상남도 사천시,(52537) 경상남도 사천시 용현면 공단4로 28-36 사천자동차운전전문학원,,055 - 854 - 5415,"운전면허 , 자동차 , 1종보통 2종보통",1종 보통 수동 면허 | 2종 보통 자동 면허 | 1종 보통 자동 면허 | 대형 견인차 면허 | 제1종 대형 면허,35.0496644,128.0461129
3BpoFwvjxH6jDZfGP8ueZg==,대구시민향토대학,대구광역시 중구,(41963) 대구광역시 중구 중앙대로 270 대명빌딩 5층(남산동) 지도보기,https://cafe.daum.net/daegushimin,010 - 3501 - 7027,"우울증예방 , 치매예방 , 시민교육","국악기 장고 배우기(화요일 오후반) | 우리 함께 배워요(화요오전반) | 우리 함께 놀아요(수요오후반) | 우리 함께 놀아요(수요오전반) | 우리 함께 놀아요(목요오후반) | 우리 함께 놀아요(목요오전반) | 가요와 인문학 강좌 | 가요와 인문학 강좌 | 가요와 한 마음 강좌 | 내 마음 찾기 강좌(동요 따라 부르기, 한마음 강좌, 숲 속 여행)",35.8574314,128.5912319
5qrF0dwN5ZvRRP8hU+YKxg==,폭풍의드럼+전설의기타음악학원,전북특별자치도 전주시,(55050) 전북특별자치도 전주시 완산구 거마평로 203 2층,http://stormdrum.alltheway.kr/,063 - 908 - 8005,"드럼 , 기타 , 베이스",주말주1회일렉기타 | 평일주3회일렉기타 | 평일주2회드럼 | 평일주2회어쿠스틱기타 | 평일주2회베이스기타 | 평일주2회일렉기타 | 평일주1회드럼 | 평일주1회어쿠스틱기타 | 평일주1회베이스기타 | 평일주1회일렉기타,35.8103832,127.1146958
5lYkHBfxXtB7oNRvZWBHQw==,kbs아트비전뷰티미용학원,경상남도 창원시,(51210) 경상남도 창원시 마산회원구 3·15대로 727 12층,,055 - 299 - 0303,"이미용 , 뷰티메이크업 , 네일아트피부관리",이용사 국가자격증 | 미용사(피부) 국가자격증 | 미용사(네일) 국가자격증 | 미용사(메이크업) 국가자격증 | 미용사(일반) 국가자격증,35.2372384,128.5812189
guUTsJgGsBS3Y4AuSrHGIw==,대구보건대학교부설평생교육원,대구광역시 북구,(41453) 대구광역시 북구 영송로 15 대구보건대학교,https://cec.dhc.ac.kr/,053 - 320 - 1284,"전통민화그리기 , 영어회화 , 생활지원사",,35.9275742,128.5432683
uMEFqty1GLk1r+mmxCBSxg==,교대위드피아노학원,서울특별시 서초구,(06647) 서울특별시 서초구 반포대로28길 31 2층 교대위드피아노학원,https://with-piano.com/,010 - 8387 - 9374,"피아노 , 클래식 , 재즈",,37.4910144,127.0100978
IJ7X9SO5QNRIHOmBHEZqvQ==,석정안동시평생교육원,경상북도 안동시,(36666) 경상북도 안동시 어가골윗길 14 태화우성아파트 상가동4층(태화동),https://blog.naver.com/korea1368,054 - 842 - 6780,"평생교육바우처 , 취미.문화예술 , 직업능력향상",,36.5588862,128.7052508
f5eoOda6+MwbdAcZjHEFRQ==,관악문화센터평생교육원,서울특별시 관악구,(08737) 서울특별시 관악구 관악로 222 2층 201호,https://shesculture.com/,02 - 889 - 9122,"홈패션, 애견패션 , 전통매듭,민화 , 캘리그라피,앙금",캘리그라피 | 민화 / 가죽공예 | AI 전자책 출판 | 펫푸드,37.4843616,126.9555582
Ktwn4k003gAIxhAITXNGLg==,피플넷원격평생교육원,전북특별자치도 전주시,(55144) 전북특별자치도 전주시 완산구 중인1길 189 1층,www.ppnet.kr,070 - 5029 - 1526,"자격증 , 코딩강사 , 자기개발",,35.7628573,127.0905833
aTCDXtnVP7amlKPwKLy92Q==,한국자격평생교육원,서울특별시 종로구,(03075) 서울특별시 종로구 혜화로3길 19 아남상가 3층,www.koreaedu.tv,02 - 764 - 0112,"심리상담사 , 다문화심리상담사 , 사법통역사",아동심리 미술심리상담사 | 노인심리상담사 | 축제행사안전관리자 | 사법통역사 | 심리상담사,37.5861218,126.9992187
nQuoeGp4mKb2i1DTt/1lBQ==,경원컴퓨터학원,부산광역시 동래구,(47866) 부산광역시 동래구 석사로 18 일양빌딩 4층,http://www.kwcf21.com,051 - 501 - 3536,"컴퓨터 , AI , 인공지능",전산회계실무(전산회계2급)자격 취득 | 세무회계실무(전산세무2급)자격 취득 | ITQ 파워포인터 자격취득과정 | ITQ 한글 자격취득과정 | ITQ 엑셀 자격취득과정 | 컴퓨터활용능력(컴활)2급(실기) 자격취득 | 한글과 엑셀 실무과정,35.1984812,129.0618576
WArgN7EXwoLHV58HKybuqg==,하이미디어컴퓨터학원,강원특별자치도 강릉시,(25540) 강원특별자치도 강릉시 경강로 2106 9층,gangneung@himedia.co.kr,033 - 822 - 2323,"전산회계전산세무2급 , 영상편집프리미어에펙 , 포토샵일러스트GTQ",일러스트 포토샵 자격증 취득(GTQ GTQi) | 누구나 가능한 전산세무2급 | 누구나 가능한 전산회계1급 | 일러스트 포토샵 자격증 취득(GTQ GTQi) | 쉽게 배우는 영상편집(프리미어에프터이펙트),37.7551434,128.8973421
omGVvAV7Q3qgeL121UP6pg==,안양이지어학원,경기도 안양시,(13992) 경기도 안양시 만안구 만안로 210 5층 안양이지어학원,,031 - 465 - 6969,,,37.3996444,126.9240571
wCKnLfO/sIa3Ji/7ZCo8rw==,에듀웨이브평생교육원,충청남도 천안시,"(31166) 충청남도 천안시 서북구 월봉로 122 3층, 301호",www.english-factory.co.kr,041 - 592 - 8205,"성인영어 , 영어회화 , 디지털문해","임팩트토익 | 회화중급 | 회화초급 | 토익스피킹(4회) | 오픽(4주) | 우리동네 이음교실(프리미엄코칭) | 우리동네 이음교실(종일반) | 우리동네 이음교실 7월(AI, 디지털문해)",36.8014806,127.1188958
mJV1bG+pQZMmXzaNABAIpg==,디자인휴먼학원,광주광역시 서구,(61958) 광주광역시 서구 상무누리로 30 컨벤션동 2.5층 지도보기,http://blog.naver.com/oasis4282,010 - 9819 - 3100,"광주플로리스트 , 광주꽃학원 , 광주꽃디자인학원",트랜드 꽃다발 꽃바구니 디자인과정 | 플라워샵그린인테리어 | 플로리스트 기초과정 -꽃과 공간을 디자인하는 첫걸음 | 플라워샵그린인테리어,35.1467770,126.8404804
NXS5gkg2358lTU/+966K2w==,아산제과제빵학원,충청남도 아산시,(31573) 충청남도 아산시 중앙로 14 2층 지도보기,,041 - 548 - 0559,"아산제과기능사 , 제빵기능사 , 케익디자이너",제빵기능사 | 제과기능사,36.7762651,127.0025622
utMXE1iixst0SDbJif79WQ==,어뮤징음악학원,서울특별시 동작구,(07040) 서울특별시 동작구 상도로62길 5 2층 어뮤징음악학원 지도보기,blog.naver.com/amusing_music,010 - 2949 - 3107,"성악 노래교실 , 피아노 , 실용반주",실용반주원데이클래스 | 성악원데이클래스 | 피아노원데이클래스 | 노래교실 | 실용반주 | 성악 | 피아노,37.4947102,126.9544034
V1KQQF8KGquSg0b41jPX7A==,휴넷평생교육원,서울특별시 구로구,(08389) 서울특별시 구로구 디지털로26길 5 709호,https://edubank.hunet.co.kr/,02 - 1600 - 9005,"사회복지사 , 평생교육 , 애완동물",아동발달 | 생활지도와상담 | 가족상담및가족치료 | 사회복지법제와실천 | 사회복지정책론 | 사회복지실천기술론 | 사회복지실천론 | 사회복지학개론 | 여성복지론 | 정신건강론,37.4816106,126.8934794
po0kS0d7hN5e4OKBmu+cEg==,씨엘요가필라테스평생교육원,경기도 동두천시,(11346) 경기도 동두천시 중앙로 126 생연프라자 702호,,031 - 862 - 6688,,요가,37.8927720,127.0525380
TzoekblhXkFVxj4HN3GhDg==,마포발달장애인평생교육센터,서울특별시 마포구,(04103) 서울특별시 마포구 신촌로26길 10 3층 마포발달장애인평생교육센터 지도보기,https://www.mapoedu.or.kr/,02 - 717 - 9557,,발달장애인평생교육,37.5558510,126.9423726
rjegS8RWUQ1yaUQW+yy3nA==,명성간호학원,서울특별시 성북구,"(02721) 서울특별시 성북구 동소문로 225 2~5층, 3층 교무실",http://www.famenurse.com/,010 - 5051 - 0107,"간호 , 성북구 , 간호조무사",,37.6022212,127.0220283
iiW1zaZezsI94cZGB7Phnw==,메가미래평생교육원,서울특별시 구로구,(08389) 서울특별시 구로구 디지털로26길 43 L동 18층 메가미래평생교육원,https://www.bbedu.co.kr/,02 - 1661 - 2332,"사회복지사 , 한국어교원 , 보육교사",,37.4810734,126.8943969
pQNZyJEAwqm03BBan08WBw==,경상북도장애인종합복지관고령분관,경상북도 고령군,(40141) 경상북도 고령군 대가야읍 벽화길 9 1층 사무실 지도보기,http://www.gbrc.or.kr/gbrc/,054 - 956 - 1120,"요가 , 원예 , 요리",,35.7250895,128.2684446
NSJnceJUtLwzd16na004Ew==,라파앤리햅필라테스재활센터평생교육원,서울특별시 용산구,(04338) 서울특별시 용산구 신흥로 79-1 2층,http://rapha-rehab.co.kr,010 - 8440 - 8107,,,37.5452503,126.9861276
UKRh72BVbWat8U3tyRjr6A==,에듀템원격평생교육원,광주광역시 동구,(61472) 광주광역시 동구 금남로 193-22 406호,https://icantalk.co.kr,010 - 9214 - 1609,"영어, AI영어 , 영어회화 , 생활영어, 챗봇",왕초보 탈출부터 실전 적용까지 초중 영어회화 트레이닝 | 복잡한 상황에서도 유창하게_중고 실전 영어 대화 과정 | 당황하지 않고 말한다 _ 문제해결형 고급 영어회화 실전반 | 일상 생활 밀착형 중급 영어회화 챌린지 | 한국인 맞춤 왕초보 영어회화 탈출 프로젝트,35.1516563,126.9150770
gKKcJ8PCuUH+QE8JCvIn1g==,언니네필라테스청주복대점평생교육원,충청북도 청주시,(28424) 충청북도 청주시 흥덕구 대농로 39 제비동 402호,https://unninepilates.kr/,010 - 5737 - 0056,"청주필라테스 , 청주기구필라테스 , 청주요가",,36.6423665,127.4268881
FjcUZeJfhUOWo57VSoJ2Wg==,울산요리학원,울산광역시 남구,(44690) 울산광역시 남구 중앙로 222 3층 울산요리학원,,052 - 261 - 6007,"생활요리 , 가정요리 , 요리",생활요리 7회 중급 | 생활요리 10회 초급,35.5408404,129.3120964
uKI0QpmPZr+e2hgpUoPF5g==,핸드메이트공예학원,서울특별시 용산구,(04317) 서울특별시 용산구 효창원로64길 2 1층,,02 - 713 - 2002,"공예 , 생활공예 , 직업",,37.5400609,126.9619830
gwwTMFgdN+wWmDQ6gRgPQg==,김희진요리제과제빵바리스타학원,강원특별자치도 춘천시,(24436) 강원특별자치도 춘천시 경춘로 2364 타워빌딩 7층,www.김희진요리제과제빵커피전문학원.kr,033 - 252 - 8607,"한식 양식 중식 , 제과 제빵 , 바리스타 커피",양식조리기능사 실기 | 양식조리기능사 실기,37.8644049,127.7207553
ykaLv8c9jh5oBApqcRB+BQ==,한국커피교육센터,서울특별시 용산구,(04320) 서울특별시 용산구 한강대로 329 예안빌딩 3층 더컵미디어센터,https://coffeemonthly.creatorlink.net/,02 - 388 - 5061,"바리스타자격증 , 카페창업 , 커피교육",바리스타 스킬 초급과정,37.5476855,126.9714834
Q4rp/HM01aLxOzAjaLJdDQ==,더아트바리스타제과제빵학원수원점,경기도 수원시,"(16488) 경기도 수원시 팔달구 효원로 303 406-1,407,408",,031 - 547 - 9545,"바리스타 , 제과제빵 , 다저트",,37.2613186,127.0351481
KsyK6mqMfXXHYNvbVWliXg==,천호위드피아노학원,서울특별시 송파구,(05511) 서울특별시 송파구 바람드리길 57 2층,https://with-piano.com/,010 - 4455 - 3337,"피아노 , 클래식 , 재즈",,37.5370583,127.1222871
MyoBGEWKuP+7F92MdXOigQ==,제이핏필라테스(문래점)평생교육원,서울특별시 영등포구,"(07281) 서울특별시 영등포구 선유로 59 4층 401호(문래동6가, 문래아카데미)",https://blog.naver.com/studiojfit5,02 - 2676 - 1211,"필라테스 , 문래필라테스 , 영등포필라테스",,37.5192659,126.8890164
te/udUYWRZQMdIW4uIjpJw==,청플라워디자인학원,대전광역시 서구,(35229) 대전광역시 서구 둔산북로 22 라이프상가 302호,https://www.chungflower.com/,010 - 5432 - 9778,"플로리스트 , 꽃꽂이 , 화훼장식기능사",화훼장식기능사 | 한국꽃꽂이 | 플로리스트,36.3555747,127.3770799
ShSPeTnpDm5/6Khg4lmDAQ==,중원대학교부설평생교육원,충청북도 괴산군,(28024) 충청북도 괴산군 괴산읍 문무로 85 중원대학교 부설 평생교육원,lec.jwu.ac.kr,043 - 830 - 8232,"수영 , 골프 , 요가",골프 초급 - 스윙의 기초 | 골프 스코어 향상을 위한 필드 집중 훈련 | Healing Golf | 골프클럽 피팅 기초 | 요가 교정 테라피1 | 수영 초급 | 요가 교정 테라피1 | 골프클럽 피팅 기초 | Healing Golf | 골프 스코어 향상을 위한 필드 집중 훈련,36.8195441,127.7991125
I/1sti9KPyVQN7h8Fma8JA==,현대요리제과제빵전문학원,충청남도 당진시,(31772) 충청남도 당진시 무수동7길 119 청운빌딩3층,,041 - 353 - 5279,"제과 , 제빵 , 한식",한식조리기능사 | 제빵기능사 | 제과기능사 | 제빵기능사 | 제빵기능사,36.8920739,126.6399705
Zvk7l/bbbUJmWKNySfeB2w==,우리자동차운전전문학원,경기도 가평군,(12426) 경기도 가평군 가평읍 태봉두밀로 34-71 우리자동차운전전문학원,www.wooridrive.com,031 - 582 - 0769,"운전면허 , 운전면허학원 , 대형면허",,37.8045764,127.4867963
rxSGSM7w3Cs9XqmCUxeLnQ==,여주시평생학습관,경기도 여주시,(12636) 경기도 여주시 신륵사길 6-6 여주시 평생학습관,https://yeoju.gseek.kr/,031 - 887 - 3326,,,37.3001848,127.6523511
kLkUDIMlUjQ4ZuDladvyDw==,엘디스실용음악학원,대구광역시 북구,(41443) 대구광역시 북구 칠곡중앙대로 455 관음빌딩 4층,blog.naver.com/jjkkyy1224,010 - 3510 - 9352,"실용음악학원 , 통기타 , 드럼",속성 통기타 과정 | 신나는 드럼레슨으로 스트레스를 날리자 | 드럼배우기 | 속성 통기타 2개월 과정 | 재즈피아노 피아노반주 | 통기타 2인이상 그룹수업 | 도시인의 로망 일렉기타 배우기 | 1대1 베이스 속성레슨 | 보컬 트레이너에게 배우는 1대1 보컬레슨 | 바다의 소리 트럼펫 배우기,35.9363519,128.5487052
W/u+AJMqVc4FVlbjRnh9VQ==,장안기지개배드민턴교실,충청남도 공주시,(32603) 충청남도 공주시 원댕이길 6 장안스포츠센터,,041 - 855 - 2361,"노인 , 장애인 , 스포츠",25노래하는 스포츠교실A | 25장애인비장애인 어울림 배드민턴교실A | 25장애인 전통윷놀이&실버레크레이션교실A | 25쉬운배드민턴교실A | 25뮤직스포츠스테킹A | 25요가&기공체조A | 25배드민턴아카데미교실A,36.4424075,127.1274662
veksMx1LF/JB1qZ16IIxvQ==,이엔주그래픽스학원,경상남도 창원시,(51363) 경상남도 창원시 마산회원구 양덕로 164 대우빌딩3층 이엔주그래픽스학원,,055 - 297 - 9308,"오토캐드 , 3dsmax , 포토샵, 일러스트",3DS MAX[4개월] | AUTOCAD[2개월] | 전산응용건축제도기능사[2개월] | 실내건축설계[2개월] | 일러스트[1개월] | 포토샵[1개월] | GTQ자격증[1개월] | 동영상편집[1개월] | 컴퓨터그래픽기능사[1개월],35.2328746,128.5827391
cLhNiyrdtZKXyVJLenocrg==,로얄컴퓨터학원,대전광역시 유성구,(34068) 대전광역시 유성구 반석로 13 웰빙타운 602호,,042 - 825 - 6339,"대전 컴퓨터학원 , 컴퓨터 자격증 , 컴퓨터기초",컴퓨터활용능력 2급 | ITQ엑셀 자격증 | ITQ한글 자격증 | 정보화 실무 | ITQ 한 글 자격증,36.3914983,127.3130828
MQK7S5GzQL6+dLWMs6Vk/Q==,이룸원격평생교육원,경기도 하남시,(12925) 경기도 하남시 미사대로 520 D동 435호,https://www.elumedu.com/,1661 - 5995,,아동복지론 | 인간행동과사회환경 | 정신건강론 | 지역사회복지론 | 사회복지학개론 | 인간행동과사회환경 | 사회복지학개론 | 사회복지실천론 | 가족상담및가족치료 | 가족복지론,37.5588656,127.2045806
bLLIZeVcGQT0GlVSH1IE4Q==,그랜드요리제과제빵학원,대전광역시 유성구,(34171) 대전광역시 유성구 문화원로6번길 1 5층 지도보기,https://naver.me/xX7hzHfB,010 - 8387 - 5210,"제빵학원 , 기능사 , 원데이클래스",트렌디한 카페디저트 실무과정 [제과] | 한식 조리기능장 실기과정 | 한식조리산업기사 실기과정 | 떡제조기능사 실기과정 | 한식조리기능사 실기 자격증과정 | 제과기능사 실기과정 | 제빵기능사 실기과정 | 쿠킹 베이킹 원데이클래스 | 양식조리기능사 실기 자격증 취득과정 | 원데이클래스,36.3616427,127.3371193
+9+GZGNCTPgcSSPHlegz8Q==,나레스트천안미용학원,충청남도 천안시,(31105) 충청남도 천안시 서북구 봉정로 321 2층 지도보기,,041 - 551 - 7551,,"왁싱 실무 속성반 | 셀프메이크업 | 속눈썹 펌 실무 | 메이크업자격증(실기반) | 두피관리사 양성과정 | 헤어실무(여성커트) | 헤어커트 현장실무 | 피부실무(산전,산후 관리) | 피부각질관리(스킨플래닝,패디플래닝) | 발각질관리(패디플래닝)",36.8306515,127.1448638
Gd/xb7o7eySm6HIQ/OHkxw==,서울불교대학원대학교부설평생교육원,서울특별시 금천구,(08559) 서울특별시 금천구 독산로70길 8 1층 평생교육원,https://www.sub.ac.kr/,010 - 5228 - 5228,"사회복지 , 상담 , 한국어교원",,37.4664034,126.9023480
ByP2VFAKXrh+daS8bfbXQQ==,한국전문기술교육원,경기도 수원시,(16457) 경기도 수원시 팔달구 효원로 27 4층 402호 지도보기,www.한국전문기술교육원.com,031 - 235 - 1515,"에어컨 분해 청소교육 , 업소용 냉장고 수리교육 , 마케팅,광고홍보/창업",에어컨 분해 청소 전문가 과정,37.2709673,127.0093358
UgtOBwYBkXr0IIpp2umnrw==,라이언스타어학원,울산광역시 남구,(44611) 울산광역시 남구 대학로 104 5층 라이언스타어학원,ryanstar.kr,052 - 937 - 4311,"토익학원 , 토익스피킹 , 울산 영어",토익종합 | 중급토익 | 영어주말반 | 토익스피킹 | 초급토익,35.5439726,129.2606626
5kdOUvy+9xbRQ8AGl2A3VQ==,포항시북부장애인종합복지관,경상북도 포항시,(37598) 경상북도 포항시 북구 새천년대로 1486 포항시북부장애인종합복지관,http://www.pbjb.or.kr,054 - 231 - 1117,,현악교실 | 배드민턴교실 중급 | 탁구교실 중급 | 스크린 파크골프 | 볼링교실 | 미술교실 고급 | 사물놀이교실 | 한지공예 | 서예교실 | 필라테스,36.0787937,129.4096632
E1KbKusrqTd95r+oranidw==,바른법률HR원격평생교육원,서울특별시 강남구,(06180) 서울특별시 강남구 영동대로85길 30 은탑타워 10층,https://www.barunlawhr.com/,02 - 555 - 5554,"HR , 인사노무 , 법률",[온캠] 한번에 끝내는 산림기사 종합반(필기+실기+기출문제 해설) | [온캠] 한번에 끝내는 산림기사 실기 | [온캠] 한번에 끝내는 산림기사 필기 | 사회보험전문가 역량인증 | 세무사에게 배우는 연말정산의 기초부터 실무까지 | 변호사에게 배우는 법률사무원 종합실무과정 2 | 변호사에게 배우는 법률사무원 종합실무과정 1 | 변호사에게 배우는 회생파산 실무과정 | 공인노무사에게 배우는 급여관리  실무과정 | 사내고충처리전문가 자격증 취득과정,37.5068233,127.0611382
5X47Y4VOcvRlJE8OvOHdKg==,리즈실용기타보컬전문학원,전라남도 나주시,(58217) 전라남도 나주시 우정로 56 토담리치타워b동607,http://leeds23.handpr.com/,061 - 337 - 7740,"실용음악 , 노래 , 통기타",,35.0236584,126.7863013
iYprXAukmPTNQX0SBotd7A==,코리아커피학원,대구광역시 달서구,(42660) 대구광역시 달서구 달구벌대로 1808 3층 지도보기,http://xn--oy2b25shwhzma47v.kr/,070 - 7752 - 7527,"바리스타자격증 , 커피학원 , 로스팅",바리스타2급 자격증,35.8592104,128.5627197
YWlzzubnvWH/J4Elz6wwWA==,경기미래직업전문학교,경기도 의정부시,"(11670) 경기도 의정부시 신흥로258번길 35 3층, 4층",http://ggacademy.kr/,031 - 857 - 0777,"한식자격증 , 한식실무 , 디저트",브런치 실무-C,37.7393619,127.0451006
cF+LiVYET5aCBXLVDlcq3Q==,동작발달장애인평생교육센터,서울특별시 동작구,(07005) 서울특별시 동작구 사당로 253-3 1층 동작발달장애인평생교육센터,www.dongjakedu.or.kr,02 - 534 - 0535,"동작 , 발달장애인 , 평생교육",,37.4836927,126.9758856
kpwBwkD4xtR2UanlWgAscg==,고산평생학습센터,대구광역시 수성구,(42262) 대구광역시 수성구 달구벌대로 3091 2층고산평생학습센터,https://www.suseong.kr,053 - 666 - 2541,"외국어 , 운동 , 악기",,35.8434747,128.6951838
nb+C6gL96VTJbdiY1VqXVw==,젬컴퓨터학원,전북특별자치도 군산시,(54138) 전북특별자치도 군산시 백토로 144 3층 젬컴퓨터학원,,063 - 463 - 7110,"ITQ실무자격증 , 컴퓨터활용능력자격증 , 그래픽자격증",,35.9663543,126.7054615
CO/ZJXnCyJu1SQ3h4NVHQw==,양평군평생학습센터,경기도 양평군,(12546) 경기도 양평군 양평읍 마유산로 3 평생학습센터,https://www.yp21.go.kr/lll,031 - 770 - 3784,,,37.4974639,127.4851147
nqSclop404cJoPfdDJFD+g==,TK그래비티평생교육원,강원특별자치도 원주시,(26465) 강원특별자치도 원주시 혁신로 61 303호 지도보기,,0507 - 1383 - 9466,필라테스,,37.3233847,127.9808330
7qcsgPx77SUmgxNSgnxxuQ==,사파사진학원,서울특별시 서초구,(06634) 서울특별시 서초구 서초대로52길 37 1층 지도보기,https://sappa.co.kr,02 - 2278 - 8333,"사진학원 , 사진강의 , 사진잘찍는법",SAPPA+과정-사진기능사 자격증 실기 시험 대비반 | SAPPA+과정-사진기능사 자격증 실기 시험 대비반 | SAPPA+과정-라이트룸 중급2 | SAPPA+과정-라이트룸 중급1 | SAPPA+과정-라이트룸 입문 | SAPPA+과정-필름/암실사진 입문2 | SAPPA+과정-필름/암실사진 입문1 | 취미사진과정-야경사진촬영반 | 취미사진과정-주간실전촬영반 | 취미사진과정-중급반2,37.4920495,127.0149691
ST7gI7MWJ142C2Oa4Qy82w==,리본필라테스일산탄현점평생교육원,경기도 고양시,"(10343) 경기도 고양시 일산서구 산현로 1 3층 301호,302호(탄현동, 대윤프라자)",https://rebornpilates.com/,031 - 911 - 8787,"탄현필라테스 , 일산필라테스 , 탄현체형교정",,37.6893954,126.7619465
kOjSiYL40gAuIrs+d7qRNw==,체인지아카데미,서울특별시 금천구,(08513) 서울특별시 금천구 디지털로 178 가산퍼블릭 B동 426호,https://www.changeus.kr,010 - 8758 - 7717,"심리상담사 , 자격증 , 평생교육이용권",맛보기 [한끝] 컴퓨터활용능력 2급 올인원 (필기+실기) | [원패스] 사회복지사 1급 종합반(1교시+2교시+3교시) | [원패스] 청소년상담사 3급 필기 종합반 | [원패스] 직업상담사 2급 필기+실기 (2025) | [AICE] 인공지능활용능력향상을 위한 패키지 교육,37.4766286,126.8871293
IILGPqCPlOgi3ZTdC8Ayww==,글로벌담인평생교육원,부산광역시 사하구,(49344) 부산광역시 사하구 낙동대로 332 희망빌딩 4층,,010 - 8693 - 9749,"부모교육상담사 , 음악심리상담사 , 토탈공예",,35.1004929,128.9809182
Mcfb+5kXyDuLpC7oELgC8w==,아트아뜰리에성인취미미술강동명일점학원,서울특별시 강동구,(05257) 서울특별시 강동구 양재대로145길 6 2층 지도보기,http://art-ate.com,010 - 2204 - 3176,"취미미술 , 유화 , 그림",,37.5520227,127.1436960
y5TIdlj2nWP3vNxIQLs6DQ==,제주바리스타커피학원,제주특별자치도 제주시,(63206) 제주특별자치도 제주시 중앙로 258 202호 제주바리스타커피학원 지도보기,https://cafe.naver.com/jejubaristacoffee,064 - 756 - 1525,,,33.4969082,126.5313292
KWciErGVanmr86n91uTeEQ==,화수분평생교육원,대전광역시 유성구,(34208) 대전광역시 유성구 학하서로53번길 6 102호 지도보기,daejeonnew.itrocks.kr,042 - 487 - 3253,"비즈.천연비누화장품 , 향초.가죽공예.원예 , 레진.주얼리.풍선",,36.3427578,127.2995713
nC7Nh4+jox4tZcRTRzYXiw==,한솔요리커피제과제빵학원,부산광역시 부산진구,(47295) 부산광역시 부산진구 중앙대로 694 쥬디스태화 7층 한솔요리커피제과제빵학원 지도보기,https://www.hscookbs.com/main/index.do,051 - 911 - 8800,"조리기능사 , 제과제빵기능사 , 디저트클래스",커피바리스타 2급 자격취득과정 | 제빵기능사 | 제과기능사 | 한식조리기능사 | 양식조리기능사 | 커피바리스타 1급 자격취득 및 라떼아트 과정 | 원데이클래스(베이킹) | 원데이클래스(요리) | 쿠킹클래스(기초요리) | 국제바리스타자격증(스킬 Lv1),35.1547419,129.0596176
9a0WHtGHR8jg4IVgK9RqPA==,지오버필라테스평생교육원청라점,인천광역시 서구,(22758) 인천광역시 서구 청라한내로 90 mk뷰빌딩 10층 1006호,http://blog.naver.com/ziover_pilatescn,010 - 5424 - 2550,"필라테스 , 기구필라테스 , 체형교정",필라테스 비기너 (개인4회 그룹6회) | 개인레슨 3회  그룹레슨 5회 | 3대1 그룹필라테스 11회 | 1대1 개인필라테스 5회 | 1대1 체형교정운동 3회,37.5333719,126.6279292
MRQ/unKrfjl1sNrrR3oV9Q==,제이알씨에듀평생교육원,서울특별시 서초구,(06708) 서울특별시 서초구 명달로 54 JRC빌딩 6층,www.cyberjrc.com,02 - 567 - 3327,"맛있는스쿨 , 외국어 , 중국어",맛있는 여행 영어 | 맛있는 스페인어 독학 첫걸음 | 맛있는 베트남어 독학 첫걸음 | 맛있는 일본어 회화 | [최신 강의] 맛있는 중국어 회화,37.4823008,127.0048989
JP7ICJDzcop04LsLDsraHg==,퇴근후미술원성인취미미술학원(낙성대),서울특별시 관악구,(08793) 서울특별시 관악구 봉천로 605 3층 지도보기,https://artafterwork.modoo.at,010 - 2380 - 7671,"성인취미미술 , 성인미술 , 취미미술",,37.4760948,126.9646152
VvLfQBGhms+n7+CNN7WrCg==,(주)구미자동차운전전문학원,경상북도 구미시,(39152) 경상북도 구미시 고아읍 선산대로 468 구미자동차운전전문학원 지도보기,www.gmcar.kr,054 - 452 - 1188,"운전면허취득 , 자동차학원 , 연수",자동차 도로연수(장롱면허) | 운전면허증취득(주행등록) | 운전면허증취득(면허취소자) | 운전면허증취득(신규) | 운전 연수 교육 | 운전면허증취득(주행등록) | 운전면허증취득(면허취소자) | 운전면허증취득(신규),36.1710538,128.3539036
I8sgEauPcU33dvISoz+iQA==,고양시장애인종합복지관,경기도 고양시,(10239) 경기도 고양시 일산서구 탄현로 139 고양시장애인종합복지관,https://goyangrehab.or.kr/#firstPage,031 - 929 - 1400,"장애인 , 문화예술교육 , 직업",,37.7032101,126.7645591
h4F2eknydQxFY+Ja96VaWg==,서원컴퓨터학원,충청북도 청주시,(28793) 충청북도 청주시 서원구 월평로 87 2층,https://blog.naver.com/sbaby3,010 - 5584 - 4598,"ITQ, 자격증 , 워드프로세서 , 컴퓨터활용능력",컴퓨터활용능력2급실기 | ITQ자격증,36.6117951,127.4945947
IWp2YbCbnOc9vdgqtwvOPw==,바디홀릭기구필라테스대화역점평생교육원,경기도 고양시,"(10381) 경기도 고양시 일산서구 중앙로 1564 5층 505호 1/2, 507호(대하동, 그린월드)",,031 - 911 - 9682,"바디홀릭기구필라테스 , 일산필라테스 , 필라테스",,37.6762119,126.7482744
hUlZkoG4w3Wn6uFj3kWzDw==,다운컴퓨터학원,울산광역시 중구,(44402) 울산광역시 중구 다운로 114 2층 다운컴퓨터학원 지도보기,https://cafe.naver.com/downcomputer,052 - 247 - 4958,"울산바우처 , 울산평생교육이용권 , 다운컴퓨터학원",기업사무관리원 양성교육(바우처),35.5630992,129.2672640
bR/cUI2vfx3hJlQUXwDSxw==,올닷실용음악학원,광주광역시 서구,(62041) 광주광역시 서구 염화로 118-1 2층,,010 - 2612 - 2392,"실용음악학원 , 음악학원 , 보컬",,35.1428186,126.8774514
+5+2mYGVbKguw5B3tuL55w==,밀양컴퓨터학원,경상남도 밀양시,(50422) 경상남도 밀양시 백민로8길 32 2층 밀양컴퓨터학원,http://www.milcom.co.kr,055 - 352 - 4747,"컴퓨터자격증 , 전산회계 , ITQ",컴퓨터활용(1일반) | 회계자격증C | 회계자격증A | 컴퓨터자격증 및 실무 A | 컴퓨터자격증 및 실무 C | 회계자격증B | 컴퓨터자격증 및 실무 B | 실무에 필요한 한글 문서 작성과 엑셀 문서 작성 배우기 | 컴퓨터기초및스마트폰활용 | 컴퓨터기초및엑셀(컴활),35.5010788,128.7495156
LZJ608NaGAU60RqCkT5PNQ==,고양커피학원,경기도 고양시,(10387) 경기도 고양시 일산서구 주화로 84 5층 고양커피학원,coffeero.net,031 - 904 - 1078,"커피관리 , 바리스타",,37.6703384,126.7589063
pdiMg71Tg7FF4YRKX2LBpQ==,상아탑컴퓨터학원,경기도 이천시,(17368) 경기도 이천시 영창로 166 3층 상아탑컴퓨터학원,www.2000top.co.kr,031 - 634 - 2374,,"컴퓨터활용능력2급 실기 (40시간) | MS Office 엑셀 실무 (40시간) | OA마스터 워드,엑셀,파워포인트 자격취득(123시간) | FAT1급 회계실무 자격취득(104시간) | TAT2급 세무실무 향상과정 (100시간) | OA마스터 워드,엑셀,파워포인트 자격취득(123시간) | 회계실무자 양성 스마트혼합과정(FAT1+TAT2) 205시간 | MS Office 엑셀 실무 (40시간) | 컴퓨터활용능력2급 실기",37.2813969,127.4410765
TQzN5U4FSd/EDPP3ecE0SA==,유진IT컴퓨터교육원,경기도 오산시,(18137) 경기도 오산시 역광장로 55 동일빌딩 5층,https://cafe.naver.com/osbit,031 - 374 - 5657,,,37.1453601,127.0674414
m+gvGKMk1Hwziku6t3ioPw==,강릉시장애인종합복지관,강원특별자치도 강릉시,(25440) 강원특별자치도 강릉시 사천면 방동길 68 강릉시장애인종합복지관,https://gnrehab.or.kr/,033 - 643 - 1801,"강릉장애인 , 강릉장애인복지관 , 강릉장애인평생교육",,37.8197521,128.8563318
aOTDtqEanZEcpNX1TLxzdQ==,(주)수풍중장비교육원학원,경기도 용인시,(17124) 경기도 용인시 처인구 남사읍 각궁로 252-3 수풍중장비교육원,http://sptci.co.kr/,031 - 323 - 6991,"중장비학원 , 지게차굴착기기중기 , 롤러타워크레인천공기",굴착기운전기능사 실기 | 지게차운전기능사 실기,37.1073509,127.1662838
TgbYqhN382075liUC8LdVA==,보람평생교육원,대구광역시 동구,(41198) 대구광역시 동구 아양로 39 7층,,053 - 952 - 1141,"병원동행매니저 , 활동지원사 , 생활지원사",,35.8822671,128.6185122
GOiukJJRMQ402VG/5JQfcQ==,성균관한자한문서당,서울특별시 송파구,(05829) 서울특별시 송파구 송이로26길 16-13 201호,www.iedunet.com,02 - 508 - 0031,"한자 , 한문 , 일본어한자중국어한자",,37.4925153,127.1228732
1iEVGZHLokZTqLH8ZxCJag==,신진중동자동차운전전문학원,경기도 부천시,(14502) 경기도 부천시 원미구 평천로 651 사무실,http://www.sinjindrive.com,032 - 323 - 3388,"부천운전면허학원 , 자동차운전면허학원 , 운전면허취득",,37.5153039,126.7629064
dSjAkjurt+ZHmYYS5jUoYA==,남지컴퓨터학원,경상남도 창녕군,(50360) 경상남도 창녕군 남지읍 상남길 2 2층,,010 - 3673 - 2115,"남지컴퓨터학원 , 창녕컴퓨터 , 컴퓨터교육",ITQ엑셀 | ITQ한글 | 컴퓨터활용능력2급 | 컴퓨터활용능력2급 | ITQ엑셀 | ITQ파워포인트 | ITQ한글 | DIAT스프레드시트 | DIAT프리젠테이션 | DIAT워드프로세서,35.3883576,128.4746795
ystonZQSzTgkkUPGA5P5gA==,정의영헤어실무학원,경상북도 경산시,(38511) 경상북도 경산시 압량읍 대학로 365 AD트윈타워501호 지도보기,https://정의영헤어실무학원.com,010 - 6768 - 7244,"헤어종합반 , 헤어자격증 , 가족미용사",가족미용사 | 가족미용사,35.8413941,128.7601860
YQNUvjdZhjTI2re29fLYuw==,한국교육방송공사(EBS),경기도 고양시,(10393) 경기도 고양시 일산동구 한류월드로 281 EBS 한국교육방송공사,www.ebs.co.kr/pass,1588 - 1580,"EBS , 자격증 , 토익",[평생교육이용권] 한국사능력검정 심화편 핵심이론기출해설 패키지(교재1권 포함) | [평생교육이용권] EBS AI 크리에이터 패키지 | 사회복지사 1급 단기 합격반 (2026년 필기시험일까지 수강) (교재 4권 포함) | [평생교육이용권] 고졸 검정고시 기본개념 마스터반 (교재7권포함) | [평생교육이용권] EBS 컴퓨터활용능력 2급 한번만 패스(교재 포함) | [평생교육이용권] 2026 전기산업기사 합격보장 [필기실기] 패키지(교재6권포함) | [평생교육이용권] 2026 공인중개사 원패스 1년 1차2차 (기본형) | [평생교육이용권] 2026 공인중개사 원패스 1년 1차 과목 (프리미엄) | [평생교육이용권] (왕초보도 쉽게 배우는) 나의 첫 여행 영어(step1-3)패키지 | [평생교육이용권][공무원] 2026 일반행정직 공패스 1년 (교재포함),37.6617244,126.7546264
dhhX6Dl1JJUYl3R8SDWCbQ==,아트앤뷰티아카데미,인천광역시 남동구,(21582) 인천광역시 남동구 선수촌공원로 1 D동 3층 302~4,https://artnbeauty.modoo.at/,032 - 471 - 7889,"미용 , 피부 , 네일아트",왁싱실무 | 실용공예,37.4391898,126.7096271
zbVKixjdubmpSgNVI9EEzA==,(YJ)와이제이사이버평생교육원,서울특별시 강남구,(06131) 서울특별시 강남구 테헤란로19길 35 와이제이에듀케이션,http://e-yj.co.kr/,070 - 5097 - 4604,"사회복지 , 아동학 , 평생교육원",인간행동과사회환경 | 영유아교수방법론 | 보육학개론 | 보육과정 | 학교사회복지론 | 인간관계론 | 설득커뮤니케이션 | 사이버심리학 | 생활지도와상담 | 상담이론과실제,37.5023674,127.0328909
0BtxIMb1tnhH36xgHpHOkA==,쌍용종합사회복지관,충청남도 천안시,(31166) 충청남도 천안시 서북구 쌍용11길 57 쌍용종합사회복지관,https://www.ssbok.or.kr/,041 - 571 - 4064,공예,원예공예 : 나만의 작품 만들기 | 도자기 공예 : 나만의 작품 만들기 | 자개공예 : 나만의 작품 만들기,36.8024910,127.1264245
/KbtnlCKzcoYI8dHFeEHpA==,맘보바리스타제과제빵학원안산점,경기도 안산시,(15360) 경기도 안산시 단원구 고잔2길 41 2층 맘보바리스타제과제빵학원 안산점,mambo-academy.com,0507 - 1391 - 5744,"제과제빵 , 바리스타 , 커피",,37.3179575,126.8356311
YUTkOTMDRba+773/Bnl+eA==,김태희음악학원,경상남도 창원시,(51136) 경상남도 창원시 의창구 동읍 자여로 67 김태희음악학원,,010 - 6479 - 7332,"아코디언 , 음악학원 , 김태희",김태희 음악학원,35.2770638,128.7008849
P7pRVhWZtXuj+EuyXlVpNg==,(주)강북제일자동차운전전문학원,경기도 포천시,(11107) 경기도 포천시 영북면 문암길 20-1 1층 강북제일자동차운전학원,www.kbjeil.co.kr,1577 - 8064,"자동차운전학원 , 운전학원 , 운전면허학원",,38.0797903,127.2741548
dFa4ShPmTFPfboElWKC+bg==,원주제과제빵요리학원,강원특별자치도 원주시,(26484) 강원특별자치도 원주시 서원대로 392 스타프라자5층501호502호,wonjuyori.co.kr,033 - 762 - 5200,"원주제과제빵요리학원 , 제과기능사 , 제빵기능사",제과제빵기능사.2 | 제과제빵기능사 | 제과제빵기능사,37.3310468,127.9484815
J3E3RmhCHwMBNDE+ePqI9Q==,한국문화원,서울특별시 동작구,(06939) 서울특별시 동작구 여의대방로 284 3층,https://jagyuk.step.or.kr,5336 - 6526,"약초 약차 약음식 , 기혈테라피 체형교정 , 명리학 명상 심리",,37.5118087,126.9253788
UNm2FSJO2iYbvVDYrKyKDQ==,더플레르(THEFLEUR)학원,전라남도 나주시,(58217) 전라남도 나주시 상야1길 21 A동304호,,010 - 3343 - 0928,"전남화훼장식기능사학 , 전남꽃학원",,35.0225784,126.7878845
j6HLUYp1Bomk1Ld1eo1p6w==,녹천자동차운전전문학원,서울특별시 노원구,(01866) 서울특별시 노원구 마들로5길 91 녹천자동차학원 사무실,www.ncdrive.co.kr,02 - 903 - 3131,"녹천자동차 , 노원구 운전학원 , 노원구 운전면허",운전면허신규취득,37.6435325,127.0514626
osoG51fSZsLmc7oybAqzqg==,인제대학교미래교육원,경상남도 김해시,(50834) 경상남도 김해시 인제로 197 인정관 2층 미래교육원,https://soc.inje.ac.kr/m/,055 - 320 - 3484,,천아트 | 기 실전 풍수지리 | 실용드럼 중급 | 실용드럼초급 | 민화 | 21c 성인을 위한 기초피아노 마스터 | 타로와 점성학심리상담가 초급과정 | 타로와 점성학심리상담가 심화과정 | 퍼스널컬러 & 이미지메이킹 실무교육 | 나도이제모델(기초),35.2487277,128.9026673
9bxWOd2X8q8/OF3bW3F/yQ==,정다운자동차운전전문학원,경기도 파주시,(10933) 경기도 파주시 중앙로 80 정다운운전학원,pajucar.co.kr,031 - 954 - 5858,,,37.7508412,126.7942254
Kofu/S722rXEe5buuhHpLw==,예산문화원,충청남도 예산군,(32440) 충청남도 예산군 예산읍 천변로90번길 3 .,http://www.cnkccf.or.kr/yesan.do,041 - 335 - 2441,"서예 , 댄스 , 악기",,36.6768793,126.8398171
8yTQgUPxYYn8j/ooIkbiww==,KCF153평생교육원,경기도 의정부시,(11673) 경기도 의정부시 시민로 39 대정프라자 601,https://www.kcf153.com,031 - 829 - 0153,"생활문화예술 , 시민리더역량강황 , 다문화체험",,37.7385530,127.0394526
OxQ4oCCC3RMIMYiqG1mxPw==,태장1동주민자치위원회,강원특별자치도 원주시,(26323) 강원특별자치도 원주시 치악로 2066 2층 주민자치사무실,태장생활문화센터.com,033 - 743 - 3283,,,37.3636896,127.9633694
6s6tY+OuXTxCOeaHYf3DGg==,성산효대학원대학교부설평생교육원,인천광역시 남동구,(21503) 인천광역시 남동구 석정로 543 성산효대학원대학교부설평생교육원,https://sedu.hyo.ac.kr,070 - 4361 - 7775,"사회복지 , 평생교육 , 위탁교육",,37.4663945,126.6960104
6YZytOg2HdZaEJHXwPTSMg==,보이스코드실용음악학원,서울특별시 광진구,(04996) 서울특별시 광진구 면목로 32 2층 보이스코드 실용음악학원,https://voicecode.modoo.at/,02 - 466 - 7775,"보컬 , 미디작곡 , 기타레슨",보컬 수업 | 악기 수업(기타수업),37.5568791,127.0764565
urA9XTf3oYTDevq8tqxMEg==,삼남읍주민자치센터,울산광역시 울주군,(44953) 울산광역시 울주군 삼남읍 작괘들길 2 삼남읍행정복지센터,,052 - 263 - 8871,,,35.5409339,129.1084350
wYfIit4uHqAEgHzBebX9Tg==,부산광역시사직종합사회복지관,부산광역시 동래구,(47861) 부산광역시 동래구 사직북로63번길 20-7 부산광역시사직종합사회복지관,https://www.sjcwc.org/,010 - 5016 - 5488,,영어회화기초 | 다이어트댄스 | 취미피아노-바이엘 | 취미피아노-체르니 | 성인수채화(수목) | 커피바리스타자격증반 | POP와 캘리그라피 | 성인수채화(목) | 성인수채화(금) | 힐링플라워아트,35.1990732,129.0573196
ri66tFPeMUNITTMVmzx+5Q==,우리복지관,제주특별자치도 제주시,(63243) 제주특별자치도 제주시 산천단남길 40 우리복지관,https://woorind.or.kr/,064 - 758 - 7942,"발달장애인 , 지적장애인 , 자폐성장애인",배드민턴 통합스포츠 교실 | 방송댄스 교실 | 중고령 발달장애인 우리 함께 쉼터 | 우리 대학,33.4460264,126.5627492
H95RjSGsot4bu0IfCKJwMA==,수호천사평생교육원,경기도 파주시,(10926) 경기도 파주시 황골로 15 205호,suhotoday.co.kr,031 - 957 - 8440,"병원동행매니저 , 생활지원사",,37.7555250,126.7705645
0KLVZ1Cv2vOtzFDpmWPCQQ==,한길IT경영아카데미학원,전북특별자치도 익산시,(54545) 전북특별자치도 익산시 고봉로 308 3층 한길IT경영아카데미학원,,063 - 833 - 3125,,,35.9594639,126.9714472
CTZJQhy1PL+spPcek9J1JQ==,평택스피치평생교육원,경기도 평택시,(17896) 경기도 평택시 비전로 16 경기도 평택시 비전로 16,,031 - 658 - 2340,"실버인지놀이지도사 , 실버인지정서놀이지도 , 실버말의기술두뇌훈련",,36.9957245,127.0925776
pvmfk0C/dbNQCiA4c3J1fw==,영등포여성인력개발센터,서울특별시 영등포구,(07251) 서울특별시 영등포구 영중로 61 4층,https://ydp.seoulwomanup.or.kr/ydp/main/main.do,010 - 858 - 4514,"커피 , 메뉴",사무자동화실무(한글엑셀) | 일이 줄어드는 AI 업무자동화 루틴만들기 | ChatGPT와 AI 기본다지기 | ChatGPT와 AI 기본다지기 | AI 활용 SNS 마케팅 실무 | AI 활용 숏폼 콘텐츠 제작(주말) | 컴퓨터 기초 및 문서작성 | 요양보호사 자격취득 | 직업상담사2급 자격증 취득 | (치매예방)인지여가교육지도사,37.5219010,126.9046318
X1rNLsK8hthwAL3vUNS2Ag==,예심아카데미뷰티미용학원,경상남도 김해시,(50926) 경상남도 김해시 가락로 1 동영빌딩3층,http://xn--hg3b50khucqsa9fx04f.com/,055 - 323 - 7270,"미용사 , 이용사(바버) , 헤어커트",이용사자격증반A | 미용사자격증반C | 미용사자격증반D | 미용사자격증반A | 미용사자격증반B | 이용자격증반B | 이용자격증반A,35.2266748,128.8825073
lBsPQq5O7rqQDocXT2kWxA==,강명주애견미용학원,부산광역시 사상구,(47003) 부산광역시 사상구 가야대로 295 일성빌딩6층,http://blog.naver.com/kmjgroomer2009,051 - 896 - 1368,"애견미용 , 반려동물아로마테라피 , 반려동물 마사지",특강 | 특강,35.1509159,129.0048330
IKLjpNDaFrAsNxCUNGYDNw==,제이도장방수학원,대전광역시 서구,(35396) 대전광역시 서구 정림로 64 3층 제이 도장방수학원 지도보기,https://blog.naver.com/jroom1972,010 - 8641 - 7912,"대전 건축도장학원 , 대전 방수기능사학원",건축도장기능사2 | 방수기능사2 | 건축도장기능사 | 방수기능사,36.3060475,127.3654000
zpEvE+bpzzyWBaW11zuskg==,하동자동차운전전문학원,경상남도 하동군,(52322) 경상남도 하동군 하동읍 화심길 116 1층,,055 - 883 - 8811,"운전면허 , 도로연수 , 운전면허증",,35.0874570,127.7336263
8gb8X7P+J5aUUYgtBQe7VQ==,매드포스터디,서울특별시 성동구,(04732) 서울특별시 성동구 독서당로 187 2층 230호,https://www.m4study.com,1661 - 7661,"전화영어 , 화상영어 , 영어회화",,37.5426788,127.0119143
AuWNmRIaKaypWf/Cvk66NA==,처음뷰티미용학원,경상남도 김해시,"(50901) 경상남도 김해시 가야로 172 에이스빌딩601호,602호",,010 - 5797 - 2015,"개인화장메이크업 , 개인메이크업",개인메이크업반 | 개인네일반,35.2622773,128.8715129
xhKNkstfTeOB3yuzrSlHEw==,서울원격평생교육원,서울특별시 금천구,(08511) 서울특별시 금천구 디지털로9길 33 1206호,www.22s.kr,02 - 1544 - 2200,"사회복지사자격증 , 보육교사자격증 , 장애영유아보육교사",,37.4789129,126.8860804
UdpfGaoP15TSbq/lp5ATQA==,강릉뷰티아카데미학원,강원특별자치도 강릉시,(25546) 강원특별자치도 강릉시 경강로2255번길 5 3층,,033 - 647 - 2527,,,37.7652467,128.9084550
ew97HOyIlJEyuXO76CiRZw==,첨단겨자씨문화센터,광주광역시 광산구,(62279) 광주광역시 광산구 첨단강변로 94 첨단겨자씨문화센터,http://www.seedculture.co.kr/,062 - 972 - 2022,"피아노 , 플룻 , 드럼",라인댄스 | 바이올린 | 저녁 피아노 | 피아노 | 라인댄스,35.2148491,126.8531664
WzlYQKaYkyY8k/lnPqxpTA==,광주중장비학원,광주광역시 광산구,(62396) 광주광역시 광산구 손재로 45-16 광주중장비학원,,062 - 382 - 3330,,소형건설기계조종사 면허 취득 교육 지게차 | 소형건설기계조종사 면허 취득 교육 | 소형건설기계조종사 면허 취득 교육 | 지게차 기능사 자격증 취득 실기,35.1698036,126.7973096
6V/rnmAy8u4L3YmSlzCrBw==,경운대학교부설평생교육원,경상북도 구미시,(39160) 경상북도 구미시 산동읍 강동로 730 2호관 122호(평생교육원) 지도보기,https://www.ikw.ac.kr/edulife/main.tc,054 - 479 - 1143,"경운대학교 , 평생교육원 , 경운대학교평생교육원",골프비거리증대 | 시니어 건강 운동 지도자 과정 | 그림책 심리지도사 2급자격과정 | 방과후 아동지도사 자격과정 | 상담심리사과정(1년과정) | 감성 수채화 캘리그라피 자격과정 | 플라워스타일링자격과정 | AI디지털 필살기 10주완성 올인원 코스 | 한글 사주 성명학 | 챠밍모델워킹지도사자격과정,36.1678660,128.4676331
DmGSGEGdNZEvfA7wQRSarg==,신제주북경중국어학원,제주특별자치도 제주시,(63125) 제주특별자치도 제주시 삼무로 27 3층 신제주북경중국어학원,,064 - 711 - 8826,,,33.4901278,126.4895628
JwwLbTTl1fOvRYKvm5i6SA==,대상누수탐지기술학원,경상북도 경주시,(38205) 경상북도 경주시 외동읍 구어들밑길 42 대상누수탐지기술학원,https://xn--od1by81atqd6qdjsmc5g.com/,054 - 771 - 8537,"누수탐지 , 누수탐지창업 , 누수탐지사 자격증",누수탐지실습 | 누수탐지이론,35.6935880,129.3113365
DbxYZjNOHkp8Pi/7271eqA==,명장김덕규제과제빵바리스타학원,경상남도 김해시,(50948) 경상남도 김해시 구지로 20 KDK빌딩 5층,http://www.kdkacademy.co.kr/,010 - 9790 - 6610,"제과 , 제빵",제과기능장 실기 특강반 | 케이크 구움과자 실무과정 | 카페 디저트 (제과) 실무과정 | 카페 브레드 (제빵) 실무과정 | 제과제빵1일특강반 | 제과제빵1일체험반 | 제과제빵중급1일체험반 | 제과제빵고급1일체험반 | 제빵기능사 자격증 취득과정 (실기) | 제과기능사 자격증 취득과정 (실기),35.2409441,128.8658618
nPwA9NavQypERjyvGDVOVA==,유한책임회사클라크중장비운전학원,경기도 양주시,(11502) 경기도 양주시 백석읍 연곡로124번길 23-42 클라크중장비운전학원,http://xn--9w3bn7kn1aky82cvdw07g.com/,031 - 855 - 9948,"지게차 , 굴착기 , 중장비",,37.8141080,126.9634169
PsA146CKfuw1RZfs5H1QMA==,계룡컴퓨터학원,대전광역시 중구,(34998) 대전광역시 중구 문화로 174 2/3층,https://blog.naver.com/krcomin,042 - 584 - 9797,"컴퓨터 자격증 , 엑셀 , 파워포인트",일러스트 | 포토샵 | 컴퓨터활용능력 2급 실기 | ITQ 엑셀 | ITQ 파워포인트 | ITQ 한글 | 엑셀실무 | 파워포인트실무 | 한글실무 | 한글실무,36.3142150,127.4045552
ZH/A3h+qFQtLXDItIkNsmA==,메디앤필라테스평생교육원,경기도 안양시,(13925) 경기도 안양시 동안구 관악대로 91 802호,,031 - 444 - 1926,"필라테스그룹레슨 , 필라테스개인레슨 , 운동재활",,37.3989076,126.9338453
UO6f4/getcdip/Q+Cu7cTA==,퓨어공방,부산광역시 부산진구,(47388) 부산광역시 부산진구 엄광로44번길 12 12,,010 - 9098 - 7272,"스칸디아모스 , 공방 , 부산진구",스칸디아모스 만들기3 | 스칸디아모스 만들기2 | 스칸디아모스 만들기1,35.1476368,129.0210519
DwDworz8INseuqUD/DlSiw==,제주장애인평생교육센터,제주특별자치도 제주시,(63309) 제주특별자치도 제주시 첨단로 203 3~4층,,064 - 722 - 9528,,,33.4542019,126.5717054
mMCxEfaHAEgvc1pM45BH+A==,영남제과제빵아카데미학원,대구광역시 중구,(41931) 대구광역시 중구 서성로 7 영남제과제빵아카데미,http://ynbc.co.kr/gnuboard4/,053 - 257 - 7798,"제과 제빵 케이크 , 커피 바리스타 , 떡",제과제빵 홈베이킹 | 커피 바리스타 | 제과제빵 홈베이킹,35.8672383,128.5866710
2j0pjBs5xJABe8EJ/kmVWQ==,봄봄,전라남도 나주시,(58325) 전라남도 나주시 문화로 244 4층,https://blog.naver.com/in_bombom,061 - 336 - 6240,,일대일 원어민 화상 일본어 | 러닝클래스 | 셔플댄스 | 소그룹 기초 발레핏 | 아름다운라인 소도구 필라테스 | 코어강화 매트소도구 필라테스 | 파워줌바댄스 | 쏭쏭 베이비마사지/성장요가 | 힙합리듬 코레오(댄스기초반) | 일대일 피아노 개인레슨,35.0204305,126.7853484
6aWdhSiOQlrUCPy90DfLVA==,모두의요리아카데미,경기도 수원시,(16705) 경기도 수원시 영통구 청명남로28번길 2 6층,www.moducook.com,031 - 202 - 2792,,원데이 요리과정_A,37.2519007,127.0752405
RrVsZKfUdkzu2MgNKrq9uA==,청주한국바리스타커피학원,충청북도 청주시,(28516) 충청북도 청주시 상당구 용담로 7 상가2층 220호 221호 지도보기,baristaschool.org,010 - 2304 - 9605,"바리스타학원 , 커피학원 , 카페창업",,36.6329307,127.4918642
5pwdcbXY635DkhUn6i/TEA==,천안중장비자동차정비학원,충청남도 천안시,(31112) 충청남도 천안시 서북구 두정공단1길 69-4,http://www.cahis.co.kr/,041 - 569 - 9912,"지게차 , 굴착기 , 기중기",롤러운전기능사(정규실기) | 자동차정비기능사(정규실기) | 기중기운전기능사(필기실기) | 굴착기운전기능사(필기실기) | 지게차운전기능사(필기실기) | 3톤미만굴착기 이수교육 | 3톤미만지게차 이수교육 | 3톤미만지게차(상시),36.8359095,127.1577260
7O7aD8/gcqDXsSWfEHwghg==,필라테스세움평생교육원,서울특별시 종로구,(03189) 서울특별시 종로구 종로10길 5 4층 지도보기,,010 - 3278 - 7214,"종각필라테스 , 종로필라테스 , 광화문필라테스",,37.5698566,126.9845389
DD568HpBOWSxyrUXUm/v3A==,중앙컴퓨터직업전문학원,제주특별자치도 서귀포시,(63595) 제주특별자치도 서귀포시 태평로 446 2층,,064 - 762 - 0377,"서귀포 , 컴퓨터 , 평생교육",,33.2461535,126.5676389
nTP58MFQqk/Pjd5yYL7aNQ==,성북발달장애인평생교육센터,서울특별시 성북구,(02796) 서울특별시 성북구 종암로 18 거산프라자 3-4층 성북발달장애인평생교육센터,http://seongbukedu.or.kr/main/index.php,02 - 909 - 7901,,,37.5921755,127.0367045
gIq1HgmwQvF71OFybfPV6A==,인천광역시교육청평생학습관,인천광역시 연수구,(21977) 인천광역시 연수구 경원대로 73 인천광역시교육청평생학습관,www.ilec.go.kr,032 - 899 - 1588,,,37.3982308,126.6721591
U751ILKYGe7e9SDydgCeUQ==,가나안평생교육원,서울특별시 영등포구,(07413) 서울특별시 영등포구 도림로 153 4층 지도보기,jeiledu.kr/admin,02 - 831 - 9550,"가사서비스 , 서울형가사서비스 , 가사도우미",,37.4942665,126.8986210
9RXfypy6uaQm4Hxrb/N/LA==,목포자동차운전전문학원,전라남도 무안군,(58551) 전라남도 무안군 청계면 영산로 1743-27 목포자동차운전전문학원,,061 - 454 - 1183,"운전면허 , 운전학원 , 최저가 운전학원",,34.9121672,126.4270612
pw+oYNQqf3TkzB4HiCp+EQ==,개금바리스타학원,부산광역시 부산진구,(47323) 부산광역시 부산진구 가야대로 454 4층 401호 개금바리스타학원,https://blog.naver.com/gaegeumbarista,051 - 893 - 8801,"커피 , 바리스타 , 커피학원",바리스타 2급/1급 통합반 | 바리스타1급 | 바리스타2급[개인반] | 바리스타2급[정규반],35.1529094,129.0216830
ZV2436LEvGMoaDGQIt01nA==,구몬스마일,서울특별시 중구,(04539) 서울특별시 중구 을지로 51 교원내외빌딩 7층,https://ksmile.kumon.co.kr/,02 - 397 - 2983,"구몬성인화상영어 , 구몬성인화상일어 , 구몬성인화상중국어",성인 스윙스 일본어한자 패키지 | 성인 스윙스 수학 | 성인 스윙스 국어,37.5664963,126.9836985
1cFieWr3ghoBYL09e5qkXA==,룩스필라테스평내호평역점평생교육원,경기도 남양주시,"(12150) 경기도 남양주시 늘을2로 20 701,702호 룩스필라테스 평내호평역점",https://blog.naver.com/lookspilates33,031 - 591 - 7775,,,37.6544952,127.2441105
nClK/oanwPJrBZm+fCIj/A==,마인드인심리상담교육센터,대구광역시 수성구,(42209) 대구광역시 수성구 지범로 188 청구리빙월드 507호,https://blog.naver.com/mindincenter,053 - 290 - 6486,"심리상담교육 , 타로 , 임상심리사",,35.8207946,128.6395144
YX8xn7bwsnTXnWltOglnkw==,세잔컴퓨터디자인학원,경상북도 포항시,"(37780) 경상북도 포항시 북구 중흥로 224 4층, 세잔컴퓨터디자인학원",www.phdesign.co.kr,054 - 281 - 7667,"CAD , 컴활 , 캐드",,36.0231355,129.3587071
bfOHezcN83P1xsebejCYoA==,포천회계컴퓨터학원,경기도 포천시,(11146) 경기도 포천시 중앙로119번길 34 2층,www.koreacom02.co.kr,031 - 532 - 8552,,전산회계 | 경리실무 | 컴퓨터(워드) | 컴퓨터(컴활) | 경리실무 | 컴퓨터(컴활) | 컴퓨터(워드) | 컴퓨터(워드) | 전산회계 | 경리실무,37.8980567,127.1994723
LfOnF4m/s8De455mU3iVJg==,필라테스케밍상도점평생교육원,서울특별시 동작구,(06965) 서울특별시 동작구 양녕로 257 3층,,010 - 5138 - 9609,,,37.5031673,126.9472949
/H17cbP7QYT8666GOubO5Q==,메소드필라테스평생교육원,전북특별자치도 완주군,(55365) 전북특별자치도 완주군 이서면 안전로 163 404호,www.methodpsy.com,063 - 222 - 5695,"필라테스 , 요가 , 운동",소도구필라테스,35.8387621,127.0581486
SXR1HIDpqW/r2qvHOEdjZQ==,엔리치필라테스운정점평생교육원,경기도 파주시,(10892) 경기도 파주시 교하로 79 201호 엔리치필라테스,,010 - 5592 - 4099,"필라테스 , 체형개선 , 체력증진",,37.7283246,126.7334348
doOJNrIriZSaiYxGTuQFGA==,팔마바리스타학원,전라남도 순천시,(57956) 전라남도 순천시 남문천변길 20 팔마바리스타학원,,010 - 7942 - 8037,,,34.9526984,127.4850574
99KzkKHqOcPzja+8FAEGeg==,군산시발달장애인평생학습관,전북특별자치도 군산시,(54042) 전북특별자치도 군산시 성산면 강변로 459 장애인체육관 1층(군산시발달장애인평생학습관),www.gunsan.go.kr,063 - 454 - 5922,,,36.0095850,126.7576762
rkBiLeY/Fv6MQFxd7ZNc9g==,롯데마트서대전점문화센터평생교육원,대전광역시 유성구,(34223) 대전광역시 유성구 유성대로 26-37 롯데마트 서대전점 문화센터 3층,https://culture.lottemart.com/cu/branch/main.do?search_str_cd=504,042 - 540 - 2590,"롯데마트 문화센터 , 서대전점 문화센터 , 성인 평생교육",활기찬 삶 액티브 시니어모델 워킹클래스 | 셀프건강클리닉 이혈테라피 | 1000kcal 빠지는 다이어트 방송댄스 | 날씬한허리 코어근육 강화 S라인 밸리댄스 | 국가무형문화재 97호 도살풀이 전수자 강의 한국무용 <도살풀이춤> | 국가무형문화재 97호 도살풀이 전수자 강의 한국무용 <기초반> | 신나는 하루 룰루랄라 라인댄스(화목) | 쉽게 재미있게 살빼는 라인댄스(월수) | 직장인을 위한 살쪽쪽 빠지는 라인댄스 | [4주 주2회]다이어트 실속요가(월금),36.3005081,127.3248293
a+iV64h4QWiUcjVRoZ5MoQ==,마창자동차운전전문학원,경상남도 창원시,(51403) 경상남도 창원시 의창구 팔용로 315 마창자동차운전전문학원 지도보기,www.machangcar.co.kr,055 - 291 - 8383,"운전면허 , 운전연수",,35.2483613,128.6055427
W5fh5PifU48CDTbxx8nhKA==,대구제과제빵커피학원,대구광역시 중구,(41943) 대구광역시 중구 달구벌대로 2109-18 3층,http://www.tgbakery.co.kr/,010 - 3534 - 4277,"제과제빵 , 케이크데코레이션 , 디저트커피",커피바리스타2급과정 | 하나부터 열까지 수제케이크 만들기 | 카페디저트실무과정 | 커피바리스타2급과정 | 떡제조기능사 | 떡디저트실무과정 | 원데이클래스,35.8660254,128.5945771
WpTWQS+Ct8KgOo4Hs48MWg==,전주여성인력개발센터,전북특별자치도 전주시,"(55106) 전북특별자치도 전주시 완산구 장승배기로 213 3,4층",http://www.jjwoman.or.kr,063 - 232 - 2346,"전주여성인력개발센터 , 여성직업교육 , 정리수납전문가",,35.7970370,127.1356402
4xLSWZMrflAA1ju7R5Qapg==,수가인뷰티아카데미수원학원,경기도 수원시,(16453) 경기도 수원시 팔달구 고등로 32 sj타워 7층 9호 10호,soogain.com,031 - 242 - 0277,"피부자격증 , 왁싱 , 속눈썹연장",메이크업단과반 | 왁싱단과반 | 속눈썹펌정규반 | 속눈썹연장속성반 | 윤곽메이크업드로잉 | 네일아트단과반 | 피부단과반 | 두피과정정규반 | 헤어스트록정규반 | 피부국가자격증속성반,37.2727263,127.0004902
zm5+TvOY1JNFvvU+2qjqNA==,몸이야수완점평생교육원,광주광역시 광산구,(62306) 광주광역시 광산구 임방울대로 338 801호,,010 - 2013 - 7756,"수완지구필라테스 , 광산구필라테스 , 광주필라테스",,35.1900792,126.8242300
HFuPXe0T/jYSjsaVfAylgg==,에스비에스(SBS)아카데미뷰티스쿨학원,강원특별자치도 원주시,(26484) 강원특별자치도 원주시 서원대로 408 6,,033 - 762 - 0770,"헤어커트 , 미용 , 네일",메이크업3급,37.3299891,127.9500079
SIjJQeWi3+cYJDtHzbdLMw==,윈컴퓨터학원,경상북도 구미시,(39181) 경상북도 구미시 옥계북로1길 4-10 2층,,054 - 476 - 7119,"구미시 , 엑셀 , 컴퓨터활용능력",,36.1388754,128.4199996
JtNrsdG0Uf7ORwhVgB5erw==,와우에듀평생교육원,경상남도 창원시,(51356) 경상남도 창원시 마산회원구 3·15대로 780 6층,https://www.wowedu.co.kr/voucher.wow,1544 - 0942,"공무원, 군무원 , 소방, 자격증 , 전기기사, 기계기사",공기업대비 기계일반 | 와우에듀 자격증과정(강좌소개참고) | 전기기사 (필기실기) | 일반기계기사 (필기실기) | 에너지관리기사 (필기실기) | 9급 운전직공무원 | 소방공무원 소방직 | 9급 군무원 | 9급공무원 기술직 | 9급공무원 행정직,35.2409065,128.5848819
BJU6Zy4RosQ1f9DGqAyzzA==,명문직업전문학교,인천광역시 계양구,"(21039) 인천광역시 계양구 경명대로 1051 5층, 6층",,032 - 881 - 7600,"컴퓨터활용능력2급 , ITQ , GTQ",회계기초와 전산회계2급 자격증과정,37.5438382,126.7237144
AhA+hH+N7st3ZGRnJWXtaA==,필라테스365상남점평생교육원,경상남도 창원시,"(51499) 경상남도 창원시 성산구 동산로 122 412,413 지도보기",,3703 -,"필라테스 , 건강 , 운동",,35.2184681,128.6904831
Fq++mSGuVh2KQfbXYLGutA==,수원여자대학부설평생교육원,경기도 수원시,(16632) 경기도 수원시 권선구 온정로 72 미림관 105-1,http://cec.swc.ac.kr,031 - 290 - 8060,,,37.2522907,126.9636317
9wPGGT0rk+c6E7SktXzs5w==,켐탑에듀케이션원격평생교육원,인천광역시 연수구,(21990) 인천광역시 연수구 송도미래로 30 A동 1704호,https://chemtop.net/,032 - 818 - 0430,"화공기사 , 화공직 , 탄약직",7급 화공직 종합반(75일) | 7급 화공직 종합반(150일) | [실기] 화공기사 (필답+작업) 무료연장,37.3668853,126.6484429
W89gx9EH/0yVR5v+hsJ9Ng==,딜라이트요가&필라테스평생교육원,서울특별시 동작구,(06953) 서울특별시 동작구 상도로 83 3층 지도보기,https://delightyogapilates.modoo.at/,02 - 815 - 4414,"필라테스 , 요가 , 플라잉요가",,37.4999228,126.9298870
z8k1dVEzWclFGllXoCQvYQ==,최선미패션디자인학원,경상북도 포항시,(37739) 경상북도 포항시 북구 죽도로 25 3층,,054 - 251 - 1810,"옷수선, 홈패션 , 옷만들기, 양재 , 패션디자인",,36.0343532,129.3639321
HuILhZzcYrewrTW6l/zXEw==,비엠커피학원,전북특별자치도 전주시,(54933) 전북특별자치도 전주시 덕진구 기린대로 385 3층 비엠커피학원,,010 - 8839 - 3396,"커피 , 바리스타 , 라떼아트",라떼아트 자격취득 과정 | 바리스타 자격취득 과정,35.8366840,127.1328363
q/E2WWVOTAlIeRsmNSjYYw==,필라테스린광명점평생교육원,경기도 광명시,(14328) 경기도 광명시 오리로 346 401호,,02 - 898 - 1380,,,37.4332917,126.8797979
ZisbBAK1pMduHsK8AtY5wQ==,화도읍주민자치센터,경기도 남양주시,(12173) 경기도 남양주시 화도읍 비룡로 59 화도읍주민자치센터,http://hwado.or.kr/src/,031 - 593 - 8493,"성인문해교육 , 직업능력향상교육 , 인문교양교육",,37.6579184,127.3006163
uJUQTdIDeXnOkLHKmySq+A==,케어앤평생교육원,경기도 화성시,(18390) 경기도 화성시 병점구 경기대로 1051 302호,https://blog.naver.com/babynote2016,031 - 375 - 3525,"산모신생아건강관리사 , 정리수납전문가 , 가사관리전문가",산모신생아건강관리사양성과정,37.2091212,127.0336903
4zZjmnkqn2tOkpUFiIICqw==,k-웰니스평생교육원,경기도 안산시,(15360) 경기도 안산시 단원구 고잔로 88 지스타프라자 601호,http://kimsyogapilates.com,031 - 480 - 3308,"요가 , 필라테스",,37.3187495,126.8360107
U1QGT0QU1FdHv+6a4zBUyg==,CMA실용음악학원,경기도 파주시,(10925) 경기도 파주시 한마음1길 40 대성빌딩 4층,http://www.cmamusic.co.kr,031 - 945 - 2090,"보컬 , 기타 , 드럼",,37.7573115,126.7710732
WtbvccrgiFy14Hp8IrAScQ==,조해성요리학원,충청북도 청주시,(28585) 충청북도 청주시 흥덕구 복대로 185 인승빌딩 9층,,043 - 236 - 5602,"청주요리학원 , 한식자격증 , 조리기능사 자격증",,36.6330928,127.4405498
/5lTNtplFA7of0oQ7wSGfQ==,와우쓰리디(WOW3D)홍대센터,서울특별시 마포구,(04068) 서울특별시 마포구 독막로 93 상수빌딩 4층 지도보기,wow3d.co.kr,02 - 3144 - 3137,"3D프린터운용기능사 , 퓨전 , 3D모델링","Fusion 활용 3D모델링 고급심화 | 3D프린터운용기능사 실기대비과정 | Fusion 활용 3D모델링 고급심화 | 스마트 제품개발을 위한 3D프린팅, 아두이노, 3D설계 실무과정 | 3D프린터운용기능사 실기대비과정",37.5479132,126.9237619
0CXM0+RXkeaRKhzRog2y6w==,미래컴퓨터학원,전라남도 광양시,(57795) 전라남도 광양시 공영로 64 4층 지도보기,,061 - 794 - 7297,"중마동 , 컴퓨터학원 , 자격증",,34.9357021,127.6960639
8nHkRMYZYsNkolEWjja1nA==,신세계댄스스포츠학원,대전광역시 대덕구,(34391) 대전광역시 대덕구 중리로 31 3층,,010 - 6437 - 3460,,웰빙 | 차차차 | 웰빙댄스 | 자이브 | 웰빙 | 룸바 | 자이브 | 웰빙댄스,36.3618276,127.4250762
Ajqqhsl6j+8TTxYPn2x5Bw==,디랜드목공기술학원,충청북도 청주시,"(28376) 충청북도 청주시 흥덕구 가로수로 1130 1, 2층",,043 - 233 - 9700,"가구제작 , 목공",,36.6262323,127.4224515
YUSLqRyU7f/tSlHhjhcUkQ==,프레그런스커피바리스타학원,경상북도 포항시,(37695) 경상북도 포항시 북구 양학로9번길 12-1 2층 프레그런스커피바리스타학원,,070 - 7798 - 0692,"커피바리스타 , 바리스타자격증 , 커피숍창업",,36.0239663,129.3505555
hQ6tuZRmmB2QxQpgts+5Cw==,요가바른평생교육원,경기도 광명시,(14316) 경기도 광명시 소하로 78 601호 지도보기,,0507 - 1322 - 9696,요가,,37.4479294,126.8833767
Thl4Y30UvoCl4Mue6NCD4g==,힘찬건설학원,충청남도 천안시,(31128) 충청남도 천안시 동남구 대흥로 258 1층,http://himchanedu.co.kr/,041 - 551 - 6114,"방수기능사 , 건축도장기능사 , 온수온돌기능사",,36.8108797,127.1488936
Qqsu3NcrMpDcmMQPE2rXgg==,청강아카데미평생교육원,서울특별시 종로구,(03189) 서울특별시 종로구 종로8길 21 남창빌딩 3층,https://chungkang1.com/,02 - 722 - 2866,"화훼장식기능사 , 플라워 꽃 , 꽃다발 꽃바구니",,37.5690769,126.9841353
jF4+++ksLocCw5n94x+1dg==,새동엔지니어링평생교육원,서울특별시 관악구,(08710) 서울특별시 관악구 당곡길 36 5층 503호,http://wingsdrone.wooripage.net/,02 - 836 - 5201,"국가드론자격증 , 파이션 드론 코딩 , 드론촬영",드론 국가자격증 이론반(학과+시뮬레이션),37.4909075,126.9289349
owsElwxphp7SZZlMTdfcWw==,성동여성인력개발센터,서울특별시 성동구,(04798) 서울특별시 성동구 성수이로22길 37 5층,sd.seoulwomanup.or.kr,02 - 3395 - 1500,평생교육,꽃차소믈리에(오전) | 점역교정사2급 자격취득(영어) | AI활용 숏폼 콘텐츠 제작 | 점역교정사 3급(국어) 시험대비 | 최신법무실무(등기) 입문 | 전산회계1급 자격취득 | 해외쇼핑몰(아마존) 입점실무 | 해외전자상거래(이베이 실무)&쇼피 | 정리수납2급 자격취득 | 엑셀실무(기초),37.5439142,127.0613915
+yVLgPOu2tptYpqs0VjZpw==,한라제과제빵학원,제주특별자치도 제주시,(63196) 제주특별자치도 제주시 동광로 31 4층,www.hallafood.net,064 - 722 - 7008,,,33.5023962,126.5320595
cRzA43Si+iVnxx9aoHSTwA==,인천일보아카데미,인천광역시 미추홀구,(22223) 인천광역시 미추홀구 매소홀로488번길 6-32 태승빌딩 5층 지도보기,https://www.icia.co.kr/senior,032 - 876 - 3332,"노인교육지도사 , 시니어교육 , 치매예방교육",시니어 뇌 건강  인지 큐레이터,37.4389000,126.6751245
lvZ+wifWkMyISOdceYPSjg==,광주목공아카데미학원,광주광역시 동구,(61421) 광주광역시 동구 무등로304번길 55 3층,https://cafe.naver.com/dongnediy,062 - 522 - 5982,"광주목공 , 목공교육 , 목공직업교육",목공을 배워요1(기초과정) | 목공자격증과정 | 목공을 배워요 2(기초과정) | 목공은 즐거워(전문가) | 목공을 배워요(기초과정) | 목공을 즐거워 | 목공을 배워요,35.1600123,126.9149754
6HdRPin4o2CfakmmLbjihg==,온봄평생교육원,대구광역시 동구,(41108) 대구광역시 동구 율하서로 42-1 101호-102호,,053 - 216 - 1801,,,35.8656040,128.6914972
zSt5znHcVdB/Gu1NtGNbdQ==,시에뷰티전문학원,충청남도 천안시,(31155) 충청남도 천안시 서북구 미라8길 33 3층 302호,,010 - 2114 - 4713,"천안미용학원 , 천안네일자격증 , 천안네일국가고시",,36.8030732,127.1308934
VWWHlHd1dVDIFwZEbCgMLw==,보이스레벨실용음악학원,광주광역시 동구,(61483) 광주광역시 동구 충장로안길 6 3층 지도보기,http://www.voicelevel.co.kr/,062 - 222 - 2366,"보컬 , 피아노 , 기타",,35.1484976,126.9142748
xD6gLQyTqSqFbng3qK04Lw==,드림컴퓨터학원,대구광역시 달서구,(42690) 대구광역시 달서구 장기로 245-1 (3층),,053 - 568 - 5577,"컴퓨터활용능력 1급 , 컴퓨터활용능력 2급 , 엑셀",[핵심콕콕] 컴퓨터활용능력 2급 필기+실기,35.8433562,128.5333811
gDHEyHPzmoA/MvBlGKgjIg==,솔므홈케어아카데미학원,경기도 고양시,(10253) 경기도 고양시 일산동구 문원길 91-4 1동 솔므,www.solmm.co.kr,00 - 1588 - 2252,"에어컨청소교육 , 에어컨 , 세탁기청소교육",,37.7150555,126.8162370
0uAMTuMtkg6lnFKK6oToDA==,에듀싸이미원격평생교육원,서울특별시 노원구,(01646) 서울특별시 노원구 덕릉로 792 3층 304호,https://www.edupsy.me/,010 - 7123 - 1727,"심리학 , 심리상담 , 상담심리",,37.6676946,127.0793112
YGX72UYr9jhBFhYeOAod+g==,아임필라테스평생교육원,서울특별시 강서구,(07563) 서울특별시 강서구 공항대로 519 202호,,02 - 2658 - 3377,,1:1 기구필라테스 | 4:1 기구필라테스 | 1:1 기구필라테스 | 4:1 기구필라테스,37.5517674,126.8641381
is7Pg8wWVn22c9h4+2YbCg==,대교해밀평생교육원,서울특별시 관악구,(08813) 서울특별시 관악구 호암로26길 64 2층 해밀원격평생교육원,www.hmstudy.com,02 - 1899 - 3052,"사회복지 , 평생교육 , 경영",평생교육프로그램개발론 | 사회복지정책론 | 사회복지행정론 | 지역사회복지론 | 가족상담및가족치료 | 경영학개론 | 경제학개론 | 리더십 | 인간관계론 | 사회복지학개론,37.4701947,126.9372185
VpneMiIimSvaP23tY/oo2w==,프랑스문화원알리앙스프랑세즈학원,광주광역시 북구,(61246) 광주광역시 북구 경열로 217 청운빌딩 2층,www.afgwangju.co.kr,010 - 2800 - 2503,"프랑스어 , 외국어자격증 , 델프 달프",,35.1589529,126.9060589
3EpDwjHU2v3KkKGJFNmwkw==,헤이감성음악학원,인천광역시 서구,(22866) 인천광역시 서구 이음대로 388 ABM타워 7층 헤이감성음악학원,https://www.instagram.com/hey_gamsung,010 - 3220 - 5152,"보컬학원 , 드럼학원 , 기타학원",,37.5930779,126.7127038
ZSELnBPZli1CR9OEy5HdOA==,포토리딩평생직업교육학원,울산광역시 남구,"(44662) 울산광역시 남구 문수로358번길 10 3층,포토리딩평생직업교육학원",http://photoreading.co.kr,070 - 7716 - 0102,"독서지도사 , 속독지도사 , 포토리딩트레이너",,35.5332349,129.2920343
BqKn8Wm1rLUSdZRwbj6jzw==,고은복지평생교육원,대구광역시 남구,"(42483) 대구광역시 남구 대명로 60-2 2층, 고은복지평생교육원",,053 - 476 - 7088,"노래 , 체조 , 댄스",,35.8388814,128.5640198
LwwpkrYwXaoWebkBjZnB+w==,휴스피치학원,서울특별시 강남구,(06240) 서울특별시 강남구 테헤란로4길 27 4층 휴스피치 학원,huspeech.com,02 - 552 - 3041,"프레젠테이션 스킬 , 비즈니스 스피치발표 , 면접 스피치",,37.4967070,127.0304396
g09/HRVotEciHp3cW2Rw4w==,맘보바리스타제과제빵학원부천지점,경기도 부천시,(14544) 경기도 부천시 원미구 상동로 87 가나베스트타운건물 8층 808호,,0507 - 1389 - 5744,,,37.5052289,126.7524429
ECZQj6tndM9NOvLnnbYENg==,"필라테스,그이상평생교육원",서울특별시 강동구,(05222) 서울특별시 강동구 고덕로 399 1동231호,,02 - 427 - 8777,"운동 , 필라테스 , 체형교정",,37.5577308,127.1701748
qDNhab8eo5DD8thXRXw0Uw==,관인미솔꽃조경학원,인천광역시 서구,"(22883) 인천광역시 서구 염곡로464번길 15 705,708,709호",https://misolland.co.kr,032 - 545 - 5655,"조경 , 산림 , 산업안전",,37.5263928,126.6711075
g/YGOB6N901m6OCletMTwQ==,꽃이필라&꽃이피지오스튜디오(studio)평생교육원,경기도 양주시,(11473) 경기도 양주시 옥정동로7다길 46 폴리프라자4차 6층 607~610호,,010 - 2438 - 4311,"필라테스 , 요가 , 번지피지오",,37.8194618,127.0928169
R2eHeqD+H6W4cqv2yekKEA==,울산광역시장애인종합복지관,울산광역시 중구,(44418) 울산광역시 중구 백양로 160 울산광역시장애인종합복지관 가족문화지원팀,www.ulsanrehab.or.kr,052 - 248 - 5912,"하모니카 , 바둑 , 민화",기타교실,35.5770323,129.3220001
7vdTacYpLHKLaFLskI/bnA==,한솔요리커피바리스타제과제빵학원,인천광역시 부평구,(21395) 인천광역시 부평구 경원대로 1395 14층,https://www.hscook.com,032 - 295 - 2500,"요리 , 제과제빵 , 바리스타",제빵기능사 | 제과기능사 | 발효빵마스터 | 국내바리스타1급 | 국내바리스타 2급 | 카페디저트 | 제과원데이클래스10회 | 조리원데이클래스,37.4918390,126.7244702
I/89e7rx7DEvInm+bH2PVQ==,카르페디엠평생교육원,서울특별시 송파구,(05607) 서울특별시 송파구 석촌호수로 135 레이크팰리스상가 A동 5층 508호 일부,,02 - 422 - 1919,"미술 , 그림 , 수채화",,37.5075719,127.0923856
UoAQ2Bny6sUYlzeUzEnIDA==,늘픔장애인평생교육원,전라남도 순천시,(57956) 전라남도 순천시 장명로 58 1층,,061 - 811 - 0704,,탁구 | 생활건강체조 | 원예치료 | 탁구 | 원예치료,34.9507673,127.4902425
JicVZLBWYfRNHGBTYd7Kdg==,학력인정홍지중고등학교,전라남도 보성군,(59416) 전라남도 보성군 벌교읍 녹색로 5071 초등학습관 지도보기,https://hjmh.hs.jne.kr,010 - 2260 - 9403,"80살도 영어를!! , 시니어 일자리 창출 , 시인이 되고싶다",,34.8414095,127.2970937
scDrC/LUulk3G2FvltQxWQ==,롯데마트맥스문화센터창원중앙점,경상남도 창원시,(51515) 경상남도 창원시 성산구 중앙대로 123 롯데마트 맥스창원중앙점 2층 문화센터,,055 - 240 - 2592,,금요 기타교실 | 수요 1:1 바이올린 | 프리미엄 아름다운 선율 1:1 바이올린 | 책놀이 지도사반 | 미술심리 색채 상담 지도사 3급 | 유행가로 본 사주 명리 | 파크야 놀자 파크골프 교실 | [소수정예 3명] 잔잔한 음악소리 하프 | 토요 기타 클래스 | 독서 심리 상담사  독서 지도사 (2급),35.2255160,128.6802817
YP8AAmxinUdYICfP2HtGoA==,안산위드피아노학원,경기도 안산시,(15464) 경기도 안산시 단원구 광덕4로 220 402호 지도보기,https://blog.naver.com/wipiansan,010 - 2336 - 9374,"피아노 , 음악 , 악기",,37.3145175,126.8369732
tfSls480mvQ/mPCLihVT/Q==,한승연뷰티미용학원,전라남도 여수시,(59689) 전라남도 여수시 선소로 51-1 2층 한승연뷰티미용학원,,061 - 682 - 3220,"헤어자격증 , 네일자격증 , 메이크업자격증",,34.7574530,127.6665563
M59jphjQiBkBg9DoCcffqw==,블레스드실용음악학원,서울특별시 강동구,(05376) 서울특별시 강동구 풍성로 215 3층,,02 - 2038 - 2520,"강동실용음악학원 , 블레스드실용음악학원 , 강동평생교육이용권",,37.5291767,127.1357637
DvRes2xKeUwnsFi3LlFVrw==,둔산음식나라조리제과커피학원,대전광역시 서구,(35234) 대전광역시 서구 둔산남로 3 운암키즈몰 6층 지도보기,http://www.esnara.co.kr/default/,042 - 471 - 9339,"요리 , 제과제빵 , 커피바리스타",트렌드브런치 | 커피바리스타2급 자격 | 일식조리기능사 과정 | 중식조리기능사취득 | 양식조리 | 한식조리 | 제과기능사 | 제빵기능사 | 생활요리 | 커피바리스타입문,36.3481099,127.3781275
kYG5jb4L+Ud3y5s6JFFVpw==,윈드필라테스평생교육원,경기도 광명시,(14348) 경기도 광명시 새빛공원로 67 3동 301~303호 지도보기,,010 - 8724 - 0920,필라테스,,37.4193612,126.8882953
4ZYOCHzbl2nhZ4epA/qotg==,DS실용음악학원,서울특별시 동작구,(07012) 서울특별시 동작구 사당로26길 38 대림빌딩 3층 지도보기,https://dsvocal-mo.imweb.me/index,010 - 6777 - 6348,"노래 , 기타 , 음악",,37.4821047,126.9780599
H2NWUVf2kaGW19iRm+Hnsw==,윤아트공예학원,부산광역시 강서구,(46764) 부산광역시 강서구 명지오션시티4로 67 강서타워402,,051 - 203 - 9123,"토탈공예 , 업사이클링 공예 , 클레이아트",업사이클링 재생소품제작 | 수제냅킨소품제작 | 미니어처수지점토 음식만들기 | 클레이점토공예 | 재생종이밴드소품제작 | 토탈공예 | 레진아트 | 양말목공예 | 생활도자기공예 | 다육식물도우아트,35.0830186,128.9039621
xGm1VvYQuB8WrTa/LFgIgg==,안성제과제빵학원,경기도 안성시,(17580) 경기도 안성시 안성맞춤대로 1063 2층,,010 - 5643 - 6448,"제과제빵 , 홈베이킹 , 케이크",제빵기능사 | 제과기능사,37.0083246,127.2695441
QhvxBwx8sAIvdQGp4D5rjQ==,뮤즈종합음악학원,경상북도 포항시,(37760) 경상북도 포항시 남구 새천년대로 448 뮤즈빌딩 2.4층,,010 - 9370 - 4980,"음악학원 , 기타학원 , 포항평생교육이용권",에어로폰 | 하모니카 | 팬플룻 | 첼로 | 바이올린 | 기타 | 색소폰 | 드럼 | 전자올겐 | 아코디언,36.0154187,129.3457554
CmcTonAzYYrEP3zjAFvP+g==,한국문화센터평생교육원,부산광역시 해운대구,(48106) 부산광역시 해운대구 양운로 98 대하프라자 804호 지도보기,hudhanc.co.kr,051 - 704 - 8860,"부산해운대문화센터 , 해운대플라워클래스 , 바우처플라워꽃수업",아치 버진로드 웨딩공간장식 | 신 화환 ( 축하 화환 ) 디자인 | 이벤트(행사)  꽃장식 | 유러피언  플라워디자인 | 플라워 수채화 캘리 | 프리저브드 캘리 | 꽃집  창업 실무 | 실내식물 가드닝 | 생활공간 꽃장식반 | 캘리그라피 (나의 감성을 글과 색으로 쓰다),35.1716411,129.1748353
NQnHV4YfdiZN3e1xcRXPgA==,서울시민대학모두의학교캠퍼스,서울특별시 금천구,(08548) 서울특별시 금천구 남부순환로128길 42 서울시민대학 모두의학교 캠퍼스 지도보기,https://sll.seoul.go.kr/main/doMainView.do?main_se=ssu,02 - 852 - 7142,"서울시민대학 , 모두의학교 캠퍼스 , 모두의학교",,37.4781974,126.9070289
j1hRvfIsH8Qe4O8pVQDCag==,한국스피치평생교육원,서울특별시 종로구,(03139) 서울특별시 종로구 종로 123 7층,http://www.speech365.kr,010 - 3742 - 3477,"스피치 프레젠테션 , 언어치료 , 면접, 사회,발표",,37.5706658,126.9912921
7OYhqEPZce1lUQZ/AYy1Vg==,담양군평생교육원,전라남도 담양군,(57390) 전라남도 담양군 창평면 창평현로 766-6 1층,,061 - 383 - 6313,평생교육사,슬로푸드교육사 | 병원동행매니저 | 병원동행매니저 | 평생교육사강사,35.2433382,127.0244902
Hnp6FQjRoT4WVOCBEOXjNA==,구로구발달장애인평생교육센터,서울특별시 구로구,(08275) 서울특별시 구로구 안양천로 552 4~5층,,02 - 2685 - 9579,,,37.4963451,126.8682447
pXA5+gYRom9KlAGbxfl0lw==,중앙미용학원,전북특별자치도 익산시,(54662) 전북특별자치도 익산시 익산대로 171 중앙미용학원,중앙미용.kr,063 - 841 - 8866,"미용 , 헤어 , 헤어미용자격증",남자커트,35.9416416,126.9475458
BaK5qj6c9JJ5f2gJzteupw==,코리아요리아트아카데미인천,인천광역시 부평구,(21394) 인천광역시 부평구 시장로 7 MH타워 16층,http://incheon.kcookart.com/,032 - 262 - 8335,"원데이클래스 , 바리스타 , 한식기능사",세계요리정복 5회 | 한식기능사 주말(31가지) | 한식기능사,37.4922000,126.7240198
sdqXhHf9NAivk0pvyj0hiw==,뉴창원자동차운전전문학원,경상남도 창원시,(51756) 경상남도 창원시 마산합포구 가포신항남로 43 뉴창원자동차운전전문학원,www.changwoncar.co.kr,055 - 237 - 7070,"운전학원 , 창원운전학원 , 마산운전학원",,35.1624939,128.5769977
do5aK6Wzq7snWV3BOwgMVA==,에듀윌원격평생교육원(학점은행제),서울특별시 구로구,(08378) 서울특별시 구로구 디지털로34길 55 201호,www.studywill.net,1600 - 6702,,장애인복지론 | 가족복지론 | 정신건강론 | 아동복지론 | 사회복지행정론 | 사회복지학개론 | 사회복지정책론 | 사회복지실천론 | 노인복지론 | 가족상담및가족치료,37.4842856,126.8992821
K43Ep+5UiIZfymQow9N/CQ==,신진주미용전문학원,경상남도 진주시,(52758) 경상남도 진주시 장대로 11 4층,,055 - 743 - 6688,"진주미용전문학원 , 신진주미용전문학원 , 피부미용전문가",맞춤형화장품조제관리사 자격증 과정 | 맞춤형화장품상담전문가(기초) | 미용(피부)실무기초반 | 미용(피부)자격증반,35.1926254,128.0885601
mfdaLhPffHjkRYFrmUiYLg==,행운자동차운전전문학원,경기도 포천시,(11140) 경기도 포천시 신북면 중앙로 332-34 행운자동차운전전문학원,https://hwolle.com,031 - 535 - 8877,"1종보통 , 2종보통 , 1종대형",운전연수 | 2종보통운전면허 | 1종보통운전면허 | 1종대형운전면허 | 운전연수,37.9151542,127.2151499
NuVMhflmvn1z1SRiv43gEA==,중앙자동차운전전문학원,충청북도 충주시,(27471) 충청북도 충주시 대소원면 완오신촌길 12 중앙자동차운전전문학원,,043 - 853 - 1601,"1종대형 , 1종보통.자동 , 2종자동",,36.9664371,127.8512437
9U6qY6fVzDJI+Eoum4dkXw==,한국상담심리교육개발원평생교육원,서울특별시 강남구,(06097) 서울특별시 강남구 봉은사로57길 5 302호,www.ccpe.co.kr,02 - 3443 - 0901,"임상심리사 , 심리상담사 , tci",,37.5112143,127.0451360
xG+TYd/bXn65FnCMlYRwsA==,룩스필라테스까치산역점평생교육원,서울특별시 강서구,(07774) 서울특별시 강서구 강서로 43 도양라비앙타워 9층 901.902호,http://lookspilates.com/,02 - 2690 - 1125,"까치산역필라테스 , 플라잉요가 , 번지핏",,37.5315298,126.8465161
WBdlDxoKT21XEoSdkObavg==,주식회사동송자동차운전전문학원,강원특별자치도 철원군,(24025) 강원특별자치도 철원군 동송읍 상노로 519 동송자동차학원,www.dsdriving.com,033 - 455 - 1500,"1종보통오토 도로연 , 2종보통 2종소형 , 1종대형 대형견인",,38.1780688,127.2283479
DmEj84sYU/U5etMPh0254g==,동대문여성인력개발센터,서울특별시 동대문구,"(02583) 서울특별시 동대문구 왕산로 60-1 포은빌딩6,7층",https://www.job2060.or.kr/,02 - 921 - 2020,"컴퓨터,조리,커피 , 사회문화,요양보호사 , 정리수납,유튜브",,37.5772910,127.0301582
jRHZhMHT3tv5+/dhB47Nyg==,한국인재뱅크평생교육원,부산광역시 부산진구,(47365) 부산광역시 부산진구 범일로 138 3층,koreasafe.org,051 - 637 - 9906,"파크골프, 골프 , 철학, 안전철학 , 산업안전, ISO",산업안전(보건)지도사 | 파크골프 | 안전코칭교육지도사 | 학교안전교육지도사 | 종합안전지도사 | 철학 | PM(프로젝트매니져) | ISO45001(안전보건경영) | PM(프로젝트 매니져) | 철학,35.1422427,129.0596030
Uaxf9QFMNp1vr8vAnfizXw==,통일평생교육원,경기도 연천군,(11037) 경기도 연천군 전곡읍 전곡역로66번길 53 1층 사무실,https://www.yeoncheon.go.kr/learning/index.do,031 - 839 - 4433,,,38.0221780,127.0718496
QX8bLyAKJHV6RqzCT9e4SA==,한국이러닝평생교육원,경기도 하남시,(12913) 경기도 하남시 미사강변동로 79 제12층 제1201호,https://www.keedu.co.kr/,02 - 1544 - 4776,,,37.5620421,127.1928471
tirBKtyay1FHZ9pk60A/ng==,김기진카빙데코레이션학원,대구광역시 동구,(41176) 대구광역시 동구 효동로1길 12 2층 201호,,010 - 7501 - 9707,"푸드카빙 , 수박카빙 , 카빙학원",,35.8789681,128.6483121
mgZVNNq0ENhjH/Srv1+4GQ==,울산푸른학교,울산광역시 남구,(44690) 울산광역시 남구 월평로 64 3-4층,,052 - 276 - 2088,"성인초등학교중학교 , 울산 평생교육 , 울산평생교육바우처",,35.5419818,129.3125502
LNQ1MHC5FWBG+ng44Ot1uw==,동방문화대학원대학교부설미래교육원,서울특별시 성북구,(02838) 서울특별시 성북구 성북로28길 60 미래교육원,www.dongbang.ac.kr,02 - 3668 - 9890,"서예, 문인화 분야 , 명리, 풍수 분야 , 학점은행제",,37.5967571,126.9916805
Md9S2GIJDfNgKrtigMRPIA==,만촌평생학습센터,대구광역시 수성구,(42043) 대구광역시 수성구 국채보상로 1001 3층 만촌평생학습센터 지도보기,https://lll.suseong.kr,053 - 666 - 4672,,,35.8662681,128.6399599
6zwHnkfKx6aeiM2IR+Uz6A==,상주중장비운전학원,경상북도 상주시,(37227) 경상북도 상주시 남상주로 1438 상주중장비운전학원 지도보기,https://naver.me/GLAlZiJW,054 - 536 - 1191,"중장비 , 지게차 , 굴착기",굴착기 운전기능사 | 지게차 운전기능사 | 5톤 미만 로더 | 3톤 미만 굴착기 | 3톤 미만 지게차,36.3608669,128.1461826
zNID5CY3RfgTGUVgW7uWng==,대한예술심리평생교육원,경기도 고양시,(10308) 경기도 고양시 일산동구 숲속마을1로 26 다인타운 202호,,010 - 8472 - 1102,"악기 , 미술 , 아로마",,37.6634780,126.7991143
5lKL2z/hwyixWTKUMBBjOA==,컬컴청라점평생교육원,인천광역시 서구,(22736) 인천광역시 서구 중봉대로 588 11층 1104~1106호,,010 - 8495 - 0553,"영어 , 영어회화 , 중국어회화",,37.5321086,126.6502646
HxYGCoRw/5TE+Lub7eBAVQ==,당진자동차운전전문학원,충청남도 당진시,(31735) 충청남도 당진시 송악읍 광명길 27 당진자동차운전전문학원,http://djcar.edenstore.co.kr/index.php?device=mobile,010 - 2769 - 8510,"운전면허증 자격 , 자동차운전학원 , 면허증",,36.8940636,126.7149259
/fAFWpIAaVpg9xNl0o/W3w==,JC글로벌어학원,인천광역시 부평구,"(21404) 인천광역시 부평구 경원대로 1404 그랑프리빌딩 309, 310, 312",www.jc21.co.kr,032 - 516 - 0515,"JC글로벌어학원 , 부평영어회화 , 인천영어회화",,37.4909488,126.7250512
zq6CKHVUE6FUzXt9yfcLVg==,랄라실용음악학원,광주광역시 북구,(61120) 광주광역시 북구 우치로241번길 45 3층,,9485 - 1492,"보컬 , 베이스 , 기타",기타 초급 | 피아노 고급,35.1862008,126.9024462
6KzaN02ok8X/tQmwm/1eZg==,포항중앙평생교육원,경상북도 포항시,(37681) 경상북도 포항시 남구 대이로60번길 16-5 2층,https://cafe.daum.net/PHLIFE,054 - 278 - 1592,"포항중앙평생교육원 , 타로교육 , 부동산실전경매",직업상담사2급 1차대비반 | 건설안전기사 1차대비반,36.0207271,129.3429471
vIDEzXaJQpPBb2BA6zk/+w==,광주속기학원,광주광역시 동구,(61482) 광주광역시 동구 금남로 250-8 금향빌딩 4층,http://kjcas.co.kr,062 - 652 - 1855,"속기사 , 한글속기사 , 속기직공무원",,35.1476052,126.9183555
kDq0vdgXpKOQ79wKmKCE6w==,행복한우리복지관,대전광역시 서구,(35366) 대전광역시 서구 계백로 1093-32 행복한우리복지관,https://www.happywoori.or.kr/,042 - 331 - 1155,,보치아 요실 | 탁구 | 배드민턴 | 굿데이 | 웹디자인스쿨 | 행복한우리앙상블 | 미술아카데미 | 음악아카데미 | 평생아카데미 | 웰빙아카데미,36.3052037,127.3451713
NjkWszwbUaXNORATc1+RIg==,동해시(평생학습관),강원특별자치도 동해시,(25781) 강원특별자치도 동해시 감추7길 52 동해시평생학습관,https://www.dh.go.kr/lifelong,033 - 530 - 2471,"평생교육 , 바우처 , 동해시",,37.5152052,129.1235482
09P3OmUfec7FbhWsS7TKpQ==,조윤희커피학원,충청남도 홍성군,(32265) 충청남도 홍성군 홍북읍 청사로48번길 16 303호 조윤희커피학원 지도보기,https://cyhcoffee2.cafe24.com/,010 - 7590 - 7139,"내포커피학원 , 홍성바리스타 , 예산바리스타",,36.6477224,126.6760900
j+KegmvixehHKvchqFBX2g==,제일정보처리학원,대전광역시 중구,(34832) 대전광역시 중구 대종로 498 동남빌딩 3층,www.jeilinfo.com,042 - 223 - 1171,"ITQ , 컴퓨터활용능력 , 대전컴퓨터학원",컴퓨터기초과정 | 컴퓨터활용능력2급 자격증 | ITQ자격증 | ITQ자격증 | 컴퓨터활용능력2급 자격증 | ITQ자격증 | 컴퓨터활용능력2급 자격증 | ITQ자격증,36.3289847,127.4257869
V2J8JhSQfYBOAKCvntgjUA==,동해자동차운전전문학원,강원특별자치도 동해시,(25705) 강원특별자치도 동해시 새들길 20 동해자동차운전전문학원 (초구동),https://blog.naver.com/ldh1659,033 - 534 - 3303,"운전학원 , 도로연수 , 운전면허증",,37.5771634,129.0923611
aQj/cSo99cdrZhMf0p4X1w==,영종장애인종합복지관,인천광역시 중구,(22377) 인천광역시 중구 찬들로 151 문화복지동 1층 영종장애인종합복지관,https://inyj.or.kr/,032 - 752 - 2433,"장애인 , 장애인복지관 , 문화여가",,37.4805032,126.5319946
UyTkpWgMUIkN2vuL6EP9rg==,서산지역사회교육협의회,충청남도 서산시,(31981) 충청남도 서산시 시장6로 35 2층,,041 - 662 - 2727,,목고예교실2<일상생활에 활용 가능한 목공기술을 배우는 실용목공>,36.7828395,126.4577885
ob0y4Mp/onROqLS5XZa3KQ==,산본시사EJC어학원,경기도 군포시,(15865) 경기도 군포시 광정로 80 신원타워빌딩 702호 산본시사EJC어학원,http://www.sisasb.com,031 - 341 - 0515,"산본일본어 , 산본영어 , 산본중국어",,37.3602927,126.9295611
2QNOmfkrbGInRDzqo+6//g==,마인드바디필라테스&요가구월점평생교육원,인천광역시 남동구,(21575) 인천광역시 남동구 인하로511번길 18 4층 지도보기,https://m.place.naver.com/place/38571333,032 - 433 - 6521,"필라테스 , 요가 , 운동",,37.4440098,126.7036353
FKo5PknCAPGO+CMCDshqmA==,최영희플라워공예디자인학원,경상북도 포항시,(37707) 경상북도 포항시 북구 용당로 115 2층,https://cyh.modoo.at,054 - 246 - 9901,"포항 평생교육바우처 , 플로리스트 , 원예복지사",,36.0375861,129.3622447
BlfeMyjvA23hQjIblnPtZg==,새부산컴퓨터학원(양정),부산광역시 부산진구,(47213) 부산광역시 부산진구 중앙대로 895 4층,https://www.saebusancom.com,051 - 868 - 0022,"OA실무과정/ITQ , 컴활1.2급 , 블로그마케팅",ITQ마스터 자격증반 | ITQ마스터 자격증반 | 엑셀 실무 & 자격증반 | 엑셀 실무 & 자격증반 | 컴퓨터기초 실무활용반,35.1705567,129.0689832
UHkeeSjLc4OlnzzIf4Vdhw==,자아연토탈미용학원,경상남도 김해시,"(50959) 경상남도 김해시 금관대로 1125 5층, 6층",jayacademy.edenstore.co.kr,055 - 333 - 9933,"미용 , 이용",속눈썹익스텐션전문가 | 두피관리전문가 | 왁싱큐레이터 | 미용사자격보충 | 미용사국가자격초급 | 미용기초실무,35.2290321,128.8487690
jTdVeqraAcfziGZ3tPYZnw==,수이평생교육원,경기도 화성시,(18472) 경기도 화성시 동탄순환대로29길 52 104호 지도보기,https://www.instagram.com/sui_lifelongedu,031 - 8043 - 6979,"플라워 , 베이킹 , 원예",투명한 설렘 [감성 꽃풍선] | 시간을 머금은 꽃 [프리저브드플라워] | 식물과 감성  [그린 아틀리에] | 꽃으로 여는 하루 [플라워 클래스] | 달콤한 여유 [홈베이킹 클래스],37.2046815,127.1078601
FjRys6t8+E7gs37mhDPk7w==,새움평생교육원,인천광역시 계양구,(21037) 인천광역시 계양구 경명대로 1023 태진빌딩401호 지도보기,,032 - 465 - 8008,"취업 , 자격증 , 복지",실질적 자기보호 상황극 교육 | 성폭력 성희롱 예방 및 자기보호 교육 | 일상생활 디지털 활용교육(키오스크 앱 활용) | 휴대폰 보안 기초교육 | 장애예방교통안전지도사 | 노인장애인병원동행매니저,37.5439104,126.7205382
QprwASYJ3IgXlrS2mV8hug==,원주전기학원,강원특별자치도 원주시,(26453) 강원특별자치도 원주시 치악로 1470 좋다빌딩 301호,,033 - 765 - 1860,"국가기술자격 , 전기기능사 , 전기기능사실기",,37.3167552,127.9699252
I4nVedGmHVePE5EL49Qi1A==,해오름평생교육원,서울특별시 영등포구,(07214) 서울특별시 영등포구 당산로44길 3 608호 해오름,http://www.heorum.com,02 - 2679 - 6270,"독서교육 , 독서논술지도사 , 방과후교사",,37.5319143,126.9010775
hwb1PcmurVtjAEATj2iQqg==,레이필라테스평생교육원,경기도 수원시,(16345) 경기도 수원시 장안구 경수대로 1131 4층 레이필라테스,,010 - 8248 - 7415,"수원필라테스 , 권선구필라테스 , 장안구필라테스",,37.3119111,126.9892051
rmZ5XxSkhg9fTKLT0GnH4g==,케이지아이티뱅크평생교육원(오마이스쿨),서울특별시 동작구,"(06928) 서울특별시 동작구 장승배기로 171 2층 (노량진동, 노량진아이비빌딩)",https://www.ohmyschool.org/,02 - 2636 - 4523,"자기계발 , 인문학 , AI",,37.5130164,126.9399370
/xVLxG6xmjdplvx7iWYqkg==,화순간호전문학원,전라남도 화순군,(58119) 전라남도 화순군 화순읍 자치샘로 37 3층,,061 - 373 - 7970,"간호조무사 , 화순 간호조무사 , 국비 조무사",,35.0618820,126.9852369
QztgZ8uG8LlIuKIAZoSVlA==,영천대안간호학원,경상북도 영천시,(38894) 경상북도 영천시 시장로 120 5층 지도보기,,054 - 333 - 9927,"간호조무사 , 병원동행매니저 , 생활지원사",,35.9634705,128.9437482
FEOK0ep4m61UzzHxDFT6HQ==,주식회사나마네,부산광역시 영도구,(49018) 부산광역시 영도구 청학로 43 1층 지도보기,www.instagram.com/namanegoods,051 - 463 - 2316,"미술,원데이,디지털드로잉,캘리그라피 , 공예,디자인,메이커교육,체험 , 데이트,굿즈,일러스트,명상,ai,민화,라인드로잉",팝아트 | 디지털드로잉 | 한지공예 | 민화 | 수묵화 | 캘리그라피 | 프랑스자수 | 어반스케치 | 굿즈체험,35.0925625,129.0595496
gUL6/KZbIhRsnqm6RH7V0A==,코리아요리아카데미부산,부산광역시 부산진구,"(47289) 부산광역시 부산진구 중앙대로 671 1,2,3층",https://busan.kcookart.com/,051 - 711 - 3040,"요리학원 , 바리스타학원 , 제과제빵학원",,35.1525930,129.0588272
WSAGtfaJq2v65H3/SFN+NQ==,팔용컴퓨터학원,경상남도 창원시,(51374) 경상남도 창원시 의창구 팔용로443번길 1 501호 (혜성빌딩),,010 - 9620 - 4242,"컴퓨터 , 자격증 , 실무",ITQ엑셀 | 컴퓨터활용능력2급 | 컴퓨터활용능력2급 | ITQ한글 | ITQ한글 | 캐드 도면설계 | 컴퓨터활용능력2급,35.2560151,128.6133227
Mh12IrG6fD5mQwodoZEk/Q==,유비온원격평생교육시설,서울특별시 구로구,(08378) 서울특별시 구로구 디지털로34길 27 유비온,iubion.com,1600 - 8990,,,37.4854726,126.8982231
DYUko9ascogMRzPtKP0blg==,거성컴퓨터학원,전북특별자치도 군산시,(54025) 전북특별자치도 군산시 월명로 466 3층 거성컴퓨터학원,http://www.geosung1.co.kr,010 - 9344 - 9820,"컴퓨터 , 사무자동화 , 유튜브",AI를 이용한 OA | AI를 이용한 OA | AI를 이용한 OA | PC활용,35.9835769,126.7098491
vERvWJh5OSp0GkNr5IeQCQ==,아보하필라테스평생교육원,경기도 안양시,"(13943) 경기도 안양시 동안구 흥안대로 528 8층 801,802호",,031 - 360 - 7064,"필라테스 , 운동 , 건강",1:1 개인레슨,37.4010219,126.9772900
uPM6KlX+RSWrYa16o/V5iQ==,백제요리제과제삥전문학원,충청남도 공주시,(32575) 충청남도 공주시 관골1길 63 2층,,041 - 852 - 7778,"한식양식일식중식 , 제과제빵",,36.4738542,127.1354485
+n1XT9SLL67XKQDizO9rhQ==,한국소프트웨어서비스교육센터평생교육원,서울특별시 동작구,(07013) 서울특별시 동작구 사당로 276 성보빌딩 601호,www.ikss.kr,02 - 535 - 1809,"엑셀 실무 과정 , 엑셀 초급 교육 , 엑셀 데이터 분석",,37.4838729,126.9784753
esTmT9Mj3HfWdUX8+AQ69g==,더무브먼트필라테스평생교육원,경기도 파주시,(10894) 경기도 파주시 금바위로 42 4층 404호,,010 - 6377 - 6633,"필라테스 , 기구필라테스",,37.7283228,126.7600127
S2XzYiP40jdktX+lgmbQKA==,배워서남쥰평생교육원,경기도 부천시,(14548) 경기도 부천시 원미구 길주로 276 무광오피스 408호 배워서남쥰,https://namjunenglish.com/,010 - 9491 - 0956,"성인영어회화 , 독서모임 , 자기계발",,37.5029457,126.7728595
C0iXylL5zUVREtDf7Gf3zA==,탑(TOP)컴퓨터학원,충청남도 아산시,(31573) 충청남도 아산시 온양역길 98 2층 탑컴퓨터학원,,041 - 542 - 7766,"아산 컴퓨터학원 , 컴퓨터활용능력 , ITQ",컴퓨터활용능력2급 | OA | 포토샵 | 일러스트 | 컴퓨터활용능력1급 | ITQ (B) | ITQ (A),36.7797991,127.0042266
bl05LcdDuqMX7JC94Dfo2A==,경포자동차운전전문학원,경상북도 포항시,(37927) 경상북도 포항시 남구 동해면 약전로115번길 69 경포자동차운전전문학원,http://kpdrive.co.kr/,054 - 284 - 9997,"대형면허취득과정 , 1.2종면허취득과정 , 2종소형면허취득과정",2종 소형면허 취득과정,35.9753341,129.4493652
/xykequwi1c2EZEbKKs2+A==,한도예학원,전북특별자치도 익산시,(54563) 전북특별자치도 익산시 하나로 422-21 한도예학원,,063 - 832 - 6588,"한도예학원 , 도자기 , 도예공방",,35.9573146,126.9831927
TBpdhho6cnXxxmQXEORN8w==,야나두원격평생교육원,서울특별시 강남구,"(06083) 서울특별시 강남구 봉은사로 619 4,5층 (JBK TOWER빌딩, 삼성동)",https://www.yanadoo.co.kr/mall/lllcard/list,1600 - 0563,"외국어 어학 , 영어 회화 , 영어 중국어 일본어",전화 영어_필리핀_주3회 20분 | 야나두 스르르학습지 | [AI 활용] 올인원 패키지 | 야나두 중국어 올인원 클래스 | 야나두 일본어 올인원 클래스 | 전화 영어_북미_주2회 20분 | 토익 스피드런 풀패키지 | 야나두 스르르 학습지 패키지 | 현지 영어 원어민 사고장착(중고급자) 패키지 | 10분 영어 시그니처 패키지,37.5149947,127.0631379
G6UgsVwzUuaKvyCKfO8AWg==,광화문위드피아노학원,서울특별시 종로구,(03184) 서울특별시 종로구 새문안로 42 피어선빌딩 3F 301호,https://with-piano.com/,010 - 2786 - 9374,"피아노 , 클래식 , 재즈",,37.5685772,126.9700684
mS8ozrtdKuBWeACxrS+wvQ==,3CATSCOFFEEACADEMY(쓰리캣커피학원),충청남도 홍성군,(32256) 충청남도 홍성군 홍북읍 의향로 263 세종빌딩 507호 3CATS COFFEE ACADEMY,https://www.instagram.com/3catscoffeelab,010 - 6757 - 9258,"커피 , 바리스타 , 로스팅",,36.6577667,126.6814059
4z5iPsn67BC7DOGL9l4rqA==,미래직업전문학교,강원특별자치도 원주시,"(26425) 강원특별자치도 원주시 천사로 174 2층, 3층",https://blog.naver.com/mirae-job,033 - 742 - 4044,"남성커트 , 여성커트 , 미용사",남성커트 (입문),37.3497068,127.9435213
IveiPP9WCkKCmpyoxzqk1g==,이브필라테스사가정평생교육원,서울특별시 중랑구,(02214) 서울특별시 중랑구 사가정로 399 7층 이브필라테스 사가정점 지도보기,https://blog.naver.com/evepilates_sagajeong,02 - 435 - 2030,"필라테스 , 기구필라테스 , 사가정필라테스",,37.5807748,127.0892180
ezLqwlSATeRVUFexCx8TWQ==,(주)이천자동차운전전문학원,경기도 이천시,(17320) 경기도 이천시 부발읍 황무로1605번길 109-73 이천자동차운전전문학원,drive7777.com,031 - 631 - 7777,"이천자동차운전학원 , 이천자동차학원 , 이천운전면허학원",,37.2748614,127.5204771
fl6HEVw7Kyu75YySUuI37A==,더유필라테스평생교육원,인천광역시 부평구,(21309) 인천광역시 부평구 마장로 385 4층 지도보기,,010 - 6506 - 9212,"필라테스 , 건강 , 운동",,37.5125747,126.7036346
fw3QDN7WdTAtfR0KMbxhUg==,빛자기리더평생교육원,경기도 고양시,(10497) 경기도 고양시 덕양구 화정로 53-1 505,,031 - 969 - 7513,,,37.6354597,126.8323997
ynAz2faLV+h1sDI7yFKYPg==,로아필라테스&자이로토닉영천점평생교육원,경기도 화성시,(18472) 경기도 화성시 동탄순환대로29길 54 303호 앤더클리식 지도보기,https://blog.naver.com/roa_pilates,031 - 373 - 4620,"필라테스 , 요가 건강 , 헬스 운동 동탄",,37.2046053,127.1080360
HorqTYquKd9AAeZg/dY5KQ==,더오름컴퓨터학원,경기도 광주시,(12759) 경기도 광주시 중앙로 95-5 성환빌딩 8층,,031 - 761 - 7141,"경기광주컴퓨터 , 경기광주디자인 , 경기광주자바",엑셀(EXCEL) | 정보기술자격 ITQ(한글/엑셀/파워포인트) | 파이썬(PYTHON) | 자바(JAVA) | 포토샵 | 일러스트 | 전산회계 1급 | 전산회계 2급 | 엑셀(EXCEL) | 컴퓨터 기초,37.4081472,127.2583404
x+2KAiTe8nxcPtjDtp5yOg==,광주보건대학교부설평생교육원,광주광역시 광산구,(62287) 광주광역시 광산구 북문대로419번길 73 광주보건대학교 평생교육원 지도보기,https://lifelong.ghu.ac.kr/,958 - 7590,"평생직업교육 , 일반교육과정 , 학점은행제",우리집 미용사 | 시니어모델교실 | 산림치유지도사 2급 양성과정 | 광주지방연수원 상복부 초음파 전문화교육 과정,35.1917509,126.8456879
a1Jc+A5H2MtQEB3Xf5DNjg==,글로벌평생교육원,인천광역시 남동구,(21591) 인천광역시 남동구 인주대로888번길 35 2층 210~215호,https://www.globaledu.co.kr/,010 - 5628 - 8862,웰빙건강지도사,,37.4465874,126.7351573
5CutKM6E461f/U+4CVH+Mw==,테스트교육기관,테스트광역시,(07800) 서울특별시 강서구 마곡중앙로 105-7 국가평생교육진흥원,,00 - 1600 - 3005,,컴퓨터 | 2131231 | 커피 | 웰빙건강 | ㄴㅁㅇㄹ | 이용사자격증속성과정 | 이용사자격증속성과정 | 테스트 | 국평원 테스트 | 테스트강좌,37.5627988,126.8261923
3nins7T1agd1KBrh/wOg/Q==,청주한국전기학원,충청북도 청주시,(28575) 충청북도 청주시 서원구 사직대로 83 4~5층,,043 - 275 - 9462,"전기학원 , 전기(산업)기사 , 전기기능사",,36.6349649,127.4567471
yMfzXGooLbR8xcP2C+YrZA==,경주시평생학습가족관,경상북도 경주시,(38140) 경상북도 경주시 북성로 87 (북부동),,054 - 779 - 8926,,,35.8480252,129.2106859
jOLdyFKrvgrS1/zIdk8joQ==,도약원격평생교육원,경기도 부천시,"(14543) 경기도 부천시 원미구 상동로 105 상동, 현해프라자 404호,405호",https://www.doyacart.com/v,032 - 255 - 4966,,새로운 시크릿 피아노 코드반주 [초급] | 그림이 쉬워지는 연필드로잉 [초급] | 꽃보다 자수 [기초편] | [패키지] 감성문자 캘리그라피 [초급  중급  고급] | [패키지] 하루 한 곡 오카리나 [초급중급고급] | 영스타 보컬 클래스 [중급] | Easy N Fast 캐릭터 디자인 [초급] | 묵향이 느껴지는 사군자 [초급] | 새로운 시크릿 피아노 코드반주 [초급] | 어디서나 쓱싹 아이패드 드로잉 [기초편],37.5066959,126.7527977
MJV2CCuijrLMqvWPT5JOAw==,서울교육대학교평생교육원,서울특별시 서초구,(06639) 서울특별시 서초구 서초중앙로 96 에듀웰센터 309호,https://lifelongstudy.snue.ac.kr/,02 - 3475 - 2312,"대학교 , 서울 , 서울교육대학교평생교",,37.4903778,127.0168606
LrNe2Svy3YmRWEaJtjvmHw==,수원역이지어학원,경기도 수원시,(16455) 경기도 수원시 팔달구 매산로 11 MG서수원빌딩 2층,,031 - 257 - 0582,,,37.2674516,127.0027269
NzVIZWxXJnIt1glUcYBYug==,한국열린평생교육원,인천광역시 부평구,"(21407) 인천광역시 부평구 동수북로 172 3층, 5층 일부",www.kopenlife.com,032 - 546 - 6009,"AI교육 , 디지털교육 , 스마트폰교육",,37.4887543,126.7252391
YYrE09/D6foe/hjlxjOXBA==,루이아카데미학원,제주특별자치도 제주시,(63197) 제주특별자치도 제주시 중앙로 195 3층,https://louieacademy.creatorlink.net/,010 - 3034 - 4865,"칵테일 , 조주 , 와인",,33.5019927,126.5284244
FnoAIQzw1Azqt0ZNFh8cWA==,보니따필라테스부천범박점평생교육원,경기도 부천시,(14782) 경기도 부천시 소사구 범안로 117 3층 303호 지도보기,,032 - 345 - 1926,,,37.4712481,126.8096277
